,name,rating,link,lat,long,avg price,description,primary_cuisine
0,Kyoto Sushi Matsumoto,3.50,https://tabelog.com/en/kyoto/A2601/A260101/26038972/,34.98940903787952,135.76003958020473,12499.5,"Kyoto Sta., Sushi, Japanese Cuisine, Seafood",Japanese
1,Sushi Tempura Gion Iwai,3.40,https://tabelog.com/en/kyoto/A2601/A260301/26039518/,35.00406773787491,135.77485188034245,8999.5,"Gion Shijo Sta., Sushi, Japanese Cuisine, Seafood",Japanese
2,Kyoto Yakiniku Gyurakutei,3.38,https://tabelog.com/en/kyoto/A2601/A260201/26002583/,35.0038537356091,135.75688598609688,5499.5,"Shijo Sta., Yakiniku (BBQ Beef), Horumon (BBQ Offel), Izakaya (Tavern)",Japanese
3,Sushi Fukagawa,3.62,https://tabelog.com/en/kyoto/A2601/A260202/26006733/,35.01504943786536,135.76674598045904,17499.5,"Kyoto Shiyakusho Mae Sta., Sushi, Japanese Cuisine, Crab",Japanese
4,Kobe Gyuu Kisshoukichi Kyoto Honten,-,https://tabelog.com/en/kyoto/A2601/A260201/26040329/,35.01011413786976,135.77072248040642,8999.5,"Sanjo Sta., Steak, Teppanyaki, Sukiyaki",Japanese
5,Kyoto Wagyu Ryouri Isseki Sanchou,3.53,https://tabelog.com/en/kyoto/A2601/A260304/26042130/,34.99056802090361,135.74902759050275,12499.5,"Umekoji Kyotonishi Sta., Yakiniku (BBQ Beef), Sukiyaki, Chinese",Chinese
6,Gion Karyo,3.60,https://tabelog.com/en/kyoto/A2601/A260301/26002441/,35.00178704343385,135.77457572323144,12499.5,"Gion Shijo Sta., Japanese Cuisine",Japanese
7,Hyoto Kyotoekimaehonten,3.51,https://tabelog.com/en/kyoto/A2601/A260101/26031208/,34.988559937878534,135.7553038801995,8999.5,"Kyoto Sta., Shabu shabu (Japanese hotpot), Japanese Cuisine",Japanese
8,Nijo Kizuki,3.59,https://tabelog.com/en/kyoto/A2601/A260202/26024174/,35.0135911599358,135.7644724077167,6999.5,"Kyoto Shiyakusho Mae Sta., Sushi, Creative, Japanese Cuisine",Japanese
9,Gion Shizuka,3.56,https://tabelog.com/en/kyoto/A2601/A260301/26041409/,35.005369991400045,135.77445362396188,12499.5,"Gion Shijo Sta., Japanese Cuisine, Nihonshu (Japanese sake), Pressed sushi stick",Japanese
10,Hyoto Shijo Karasuma Ten,3.54,https://tabelog.com/en/kyoto/A2601/A260202/26002130/,35.005583437868644,135.75818948036942,8999.5,"Karasuma Sta., Shabu shabu (Japanese hotpot), Japanese Cuisine",Japanese
11,Steak Teppanyaki Mikura,3.37,https://tabelog.com/en/kyoto/A2601/A260301/26002059/,35.00779828438807,135.77111073422995,8999.5,"Sanjo Sta., Steak, Teppanyaki, Seafood",Japanese
12,Gion Yamagishi,3.62,https://tabelog.com/en/kyoto/A2601/A260301/26039228/,35.00253670411125,135.77564282231546,24999.5,"Gion Shijo Sta., Japanese Cuisine, Seafood, Tempura",Japanese
13,Matsusaka Gyuu WHAT'S Kyoto Muromachi Ten,3.39,https://tabelog.com/en/kyoto/A2601/A260202/26004842/,35.008390037954705,135.75800555905195,8999.5,"Karasuma Oike Sta., Yakiniku (BBQ Beef), Horumon (BBQ Offel), Steak",Japanese
14,Kyoto Sushi Momonoki,3.50,https://tabelog.com/en/kyoto/A2601/A260101/26039689/,34.98935062035281,135.7600750001106,12499.5,"Kyoto Sta., Sushi, Seafood",Japanese
15,Gion Shoten Kyoto Kawaramachi Honten,3.16,https://tabelog.com/en/kyoto/A2601/A260201/26039792/,35.00423976030288,135.77020513994705,2499.5,"Kyoto Kawaramachi Sta., Izakaya (Tavern), Yakitori (Grilled chicken skewers), Seafood",Japanese
16,Kyoto Tsuyushabu CHIRIRI Hon Ten,3.41,https://tabelog.com/en/kyoto/A2601/A260202/26020754/,35.01808333786062,135.75786608049592,6999.5,"Marutamachi Sta., Shabu shabu (Japanese hotpot), Sukiyaki, Japanese Cuisine",Japanese
17,Yakiniku Gyusho Shin,3.58,https://tabelog.com/en/kyoto/A2601/A260301/26036119/,35.00505393787399,135.77391538035306,12499.5,"Gion Shijo Sta., Yakiniku (BBQ Beef), Japanese Cuisine, Beef dishes",Japanese
18,Fujiwara,3.62,https://tabelog.com/en/kyoto/A2601/A260301/26001379/,35.00457426789264,135.77586854308956,12499.5,"Gion Shijo Sta., Japanese Cuisine",Japanese
19,Kyoto Sanjo Haku,3.57,https://tabelog.com/en/kyoto/A2601/A260202/26030697/,35.0096245266276,135.77106648109807,24999.5,"Sanjo Sta., Sukiyaki, Japanese Cuisine",Japanese
20,Gion Katana,3.16,https://tabelog.com/en/kyoto/A2601/A260301/26041466/,35.00573355230531,135.77380560548517,12499.5,"Gion Shijo Sta., Yakitori (Grilled chicken skewers), Izakaya (Tavern), Wine bar",Japanese
21,Gion Gyuuzen,3.09,https://tabelog.com/en/kyoto/A2601/A260301/26003500/,35.00463963787529,135.77720378034658,4499.5,"Gion Shijo Sta., Shabu shabu (Japanese hotpot), Sukiyaki, Hot Pot",Japanese
22,0 Byo Lemon Sour Sendai Horumon Yakiniku Sakaba Tokiwatei Sanjo Kiyamachi Ten,3.04,https://tabelog.com/en/kyoto/A2601/A260301/26040469/,35.00795823787095,135.770222580385,3499.5,"Sanjo Sta., Yakiniku (BBQ Beef), Horumon (BBQ Offel), Izakaya (Tavern)",Japanese
23,Pontocho Sushi Ishi Ya,3.23,https://tabelog.com/en/kyoto/A2601/A260201/26037826/,35.00506443787301,135.77086068035533,12499.5,"Gion Shijo Sta., Sushi",Japanese
24,Fresh Market,3.09,https://tabelog.com/en/kyoto/A2601/A260301/26013607/,35.00508420318021,135.77528634574043,12499.5,"Gion Shijo Sta., Steak, Beef dishes, Teppanyaki",Japanese
25,Kyoto Minami,3.01,https://tabelog.com/en/kyoto/A2601/A260301/26030521/,35.007394737871024,135.76927918037998,2499.5,"Sanjo Sta., Yakiniku (BBQ Beef), Shabu shabu (Japanese hotpot)",Japanese
26,Ippin Sakai,3.52,https://tabelog.com/en/kyoto/A2601/A260201/26034508/,35.00629855981121,135.7617924104991,5499.5,"Karasuma Sta., Japanese Cuisine",Japanese
27,Nikuya Kagura,3.57,https://tabelog.com/en/kyoto/A2601/A260202/26020065/,35.011604869223255,135.75792998696085,8999.5,"Karasuma Oike Sta., Yakiniku (BBQ Beef), Japanese Cuisine",Japanese
28,Masuichi Higashi Ten,3.50,https://tabelog.com/en/kyoto/A2601/A260604/26002401/,34.97709903788388,135.74922808008802,5499.5,"Toji Sta., Yakiniku (BBQ Beef), Horumon (BBQ Offel)",Japanese
29,Onjaku Sakontaro Hon Ten,3.36,https://tabelog.com/en/kyoto/A2601/A260202/26002088/,35.01195616566733,135.77069141095157,6999.5,"Kyoto Shiyakusho Mae Sta., Japanese Cuisine, Seafood, Hot Pot",Japanese
30,Ryotei Yachiyo,3.46,https://tabelog.com/en/kyoto/A2601/A260301/26001833/,35.01106623787503,135.78919928040307,5499.5,"Keage Sta., Japanese Cuisine, Tofu dishes, Sukiyaki",Japanese
31,Gion Suetomo,3.87,https://tabelog.com/en/kyoto/A2601/A260301/26009394/,34.99888344201004,135.7732529112224,34999.5,"Kiyomizu Gojo Sta., Japanese Cuisine, Sushi",Japanese
32,CICON by NOHGA HOTEL,3.57,https://tabelog.com/en/kyoto/A2601/A260301/26037084/,34.99519857287268,135.77408328969543,5499.5,"Kiyomizu Gojo Sta., Italian, Pasta, Dining bar",Italian
33,Gion Nikuryori Oka,3.71,https://tabelog.com/en/kyoto/A2601/A260301/26036578/,35.003507437875015,135.77406958033734,34999.5,"Gion Shijo Sta., Beef dishes, Japanese Cuisine",Japanese
34,Ishibe Koji Mamecha Kyoto,3.45,https://tabelog.com/en/kyoto/A2601/A260301/26001963/,35.00079313787837,135.77916968030635,8999.5,"Gion Shijo Sta., Japanese Cuisine, Seafood, Regional Cuisine",Japanese
35,Private rooms Izakaya Hannari Tei Kyoto Ekimae Ten,3.57,https://tabelog.com/en/kyoto/A2601/A260101/26041666/,34.98390988116352,135.7581121334331,3499.5,"Kyoto Sta., Izakaya (Tavern), Regional Cuisine, Seafood",Japanese
36,Gion Tsuzaki,3.19,https://tabelog.com/en/kyoto/A2601/A260301/26016900/,35.005524857105414,135.7772915160414,6999.5,"Higashiyama Sta., Sushi, Japanese Cuisine, Seafood",Japanese
37,Gion Kaburaya,3.41,https://tabelog.com/en/kyoto/A2601/A260301/26001441/,35.00337492403864,135.77428317441866,5499.5,"Gion Shijo Sta., Japanese Cuisine, Izakaya (Tavern)",Japanese
38,taishuusukiyakihokuto Shijo Karasuma Ten,3.31,https://tabelog.com/en/kyoto/A2601/A260201/26041985/,35.004681772091416,135.76086450644578,3499.5,"Karasuma Sta., Sukiyaki, Izakaya (Tavern), Hot Pot",Japanese
39,Shun Yasai × Kyo Izakaya Hitokuchi,3.05,https://tabelog.com/en/kyoto/A2601/A260201/26036216/,35.00425670415274,135.77027485559927,3499.5,"Kyoto Kawaramachi Sta., Izakaya (Tavern), Japanese Cuisine, Regional Cuisine",Japanese
40,Yakiniku Marutomi Shijo Kawaramachi Ten,3.35,https://tabelog.com/en/kyoto/A2601/A260201/26029233/,35.00358260183613,135.76983103460657,4499.5,"Kyoto Kawaramachi Sta., Yakiniku (BBQ Beef), Izakaya (Tavern), Japanese Cuisine",Japanese
41,Pontocho Robin,3.46,https://tabelog.com/en/kyoto/A2601/A260202/26001889/,35.00763469015908,135.7710754669133,12499.5,"Sanjo Sta., Japanese Cuisine, Hot Pot, Seafood",Japanese
42,Toto 7,3.34,https://tabelog.com/en/kyoto/A2601/A260101/26038128/,34.98941083787834,135.75638268020734,3499.5,"Kyoto Sta., Izakaya (Tavern), Seafood, Sushi",Japanese
43,Niku Pond,3.18,https://tabelog.com/en/kyoto/A2601/A260202/26036634/,35.009683900575894,135.77022572091298,8999.5,"Kyoto Shiyakusho Mae Sta., Yakiniku (BBQ Beef)",Japanese
44,Kyoto Gion Teppanyaki Plancha Ken,3.10,https://tabelog.com/en/kyoto/A2601/A260301/26023389/,35.00428603787529,135.77646408034352,8999.5,"Gion Shijo Sta., Steak, Teppanyaki, Yoshoku (Japanese style western cuisine)",Japanese
45,Genpin Kyoto Gion Fugu Unagi Kani Ryori,3.06,https://tabelog.com/en/kyoto/A2601/A260301/26002743/,35.0028169145755,135.77731598145408,5499.5,"Gion Shijo Sta., Fugu (Pufferfish), Unagi (Eel), Izakaya (Tavern)",Japanese
46,Unagi Yondaime Kikukawa Kyotoekiporutaten,3.26,https://tabelog.com/en/kyoto/A2601/A260101/26036592/,34.986075680670304,135.75937687554062,4499.5,"Kyoto Sta., Unagi (Eel), Japanese Cuisine",Japanese
47,Kobe Gyuu Senmon Ten Kisshoukichi Kawaramachi Sanjo,3.05,https://tabelog.com/en/kyoto/A2601/A260301/26040071/,35.0087548436015,135.76953166893531,8999.5,"Sanjo Sta., Steak, Teppanyaki",Japanese
48,Pontocho Asari,3.12,https://tabelog.com/en/kyoto/A2601/A260201/26037431/,35.00499839265213,135.77107251226278,3499.5,"Gion Shijo Sta., Izakaya (Tavern), Motsu Nabe (Offel Hot Pot), Japanese Cuisine",Japanese
49,Platinum Beef,3.31,https://tabelog.com/en/kyoto/A2601/A260301/26022647/,35.00334184585148,135.77278496703428,6999.5,"Gion Shijo Sta., Teppanyaki, Steak, Baru (Spanish style bar)",Spanish
50,Ihara Da,3.67,https://tabelog.com/en/kyoto/A2601/A260203/26001469/,34.99053473786991,135.73214178023568,12499.5,"Tambaguchi Sta., Japanese Cuisine",Japanese
51,Machiya Kukan Kyoto Kyo Akari,3.15,https://tabelog.com/en/kyoto/A2601/A260101/26024935/,34.981767835318244,135.76093472228044,3499.5,"Kujo Sta., Izakaya (Tavern), Kushi-age (Deep-fried skewers), Hot Pot",Japanese
52,Gion Motose,3.71,https://tabelog.com/en/kyoto/A2601/A260301/26006494/,35.00258293787604,135.77543238032706,24999.5,"Gion Shijo Sta., Japanese Cuisine, Seafood",Japanese
53,Tenichi Kyoto Isetan Ten,3.21,https://tabelog.com/en/kyoto/A2601/A260101/26006121/,34.98588650445891,135.75767202583856,8999.5,"Kyoto Sta., Tempura, Ten-don (Tempura bowl), Japanese Cuisine",Japanese
54,Sushi Toku,3.59,https://tabelog.com/en/kyoto/A2601/A260101/26035349/,34.98891043787938,135.7586717802007,24999.5,"Kyoto Sta., Sushi, Japanese Cuisine",Japanese
55,Kyoto Ekimae Sakaba Jurakudai,3.60,https://tabelog.com/en/kyoto/A2601/A260101/26041195/,34.98932559856349,135.75872032677535,4499.5,"Kyoto Sta., Izakaya (Tavern), Seafood",Japanese
56,Tominokoji Tempura Matsui,3.29,https://tabelog.com/en/kyoto/A2601/A260202/26033471/,35.00780595675862,135.76512317558723,6999.5,"Kyoto Shiyakusho Mae Sta., Tempura, Japanese Cuisine, Izakaya (Tavern)",Japanese
57,Sakana Ryori Agiyao,3.55,https://tabelog.com/en/kyoto/A2601/A260201/26006073/,34.99658986444478,135.76112874595574,17499.5,"Gojo Sta., Seafood, Japanese Cuisine, Izakaya (Tavern)",Japanese
58,Japanese cuisine Sakuragawa,3.72,https://tabelog.com/en/kyoto/A2601/A260202/26000659/,35.01217586425443,135.77068362370522,24999.5,"Kyoto Shiyakusho Mae Sta., Japanese Cuisine",Japanese
59,Fugu Kani Hamo Kizuki,3.33,https://tabelog.com/en/kyoto/A2601/A260101/26036172/,34.988238737880366,135.76044178019268,5499.5,"Kyoto Sta., Fugu (Pufferfish), Crab, Hot Pot",Asian
60,Kyokaiseki to Yuba Ryori Shozankaku Jei A Ru Kyoto Isetan Ten,3.46,https://tabelog.com/en/kyoto/A2601/A260101/26000784/,34.9858523371143,135.75742399245496,6999.5,"Kyoto Sta., Japanese Cuisine, Tofu dishes",Japanese
61,Sushi Dokoro Ima,3.57,https://tabelog.com/en/kyoto/A2601/A260401/26023451/,34.979864237869684,135.71016788014333,8999.5,"Katsura Sta., Sushi, Seafood, Japanese Cuisine",Japanese
62,restaurant muni,3.23,https://tabelog.com/en/kyoto/A2601/A260301/26036138/,35.00814103787107,135.77089328038636,6999.5,"Sanjo Sta., French",French
63,BENOIT Kyoto Alain Ducasse,3.57,https://tabelog.com/en/kyoto/A2601/A260301/26034036/,34.99752393788039,135.77902828027342,12499.5,"Gion Shijo Sta., Bistro, French",French
64,Senda,3.59,https://tabelog.com/en/kyoto/A2601/A260501/26038342/,35.02766573784683,135.73372208060965,17499.5,"Kitano Hakubaicho Sta., Japanese Cuisine, Unagi (Eel)",Japanese
65,Dining bar  MO-JI,3.23,https://tabelog.com/en/kyoto/A2601/A260301/26032801/,35.004910019169685,135.77322680258277,6999.5,"Gion Shijo Sta., Dining bar, Steak, Italian",Italian
66,Sumibi Kushiyaki Torito,3.53,https://tabelog.com/en/kyoto/A2601/A260302/26002638/,35.017653088143,135.7725132195761,3499.5,"Jingu Marutamachi Sta., Yakitori (Grilled chicken skewers), Hot Pot, Izakaya (Tavern)",Japanese
67,dining HARIMAYA,3.34,https://tabelog.com/en/kyoto/A2601/A260301/26003135/,35.00752917199167,135.77256979211575,6999.5,"Sanjo Sta., Dining bar, Japanese Cuisine",Japanese
68,Ishiyakijidori Torikura,3.48,https://tabelog.com/en/kyoto/A2601/A260201/26006163/,35.00507255534428,135.7603903611644,5499.5,"Karasuma Sta., Yakitori (Grilled chicken skewers), Chicken dishes, Izakaya (Tavern)",Japanese
69,Teppanyaki Tokiwa,3.50,https://tabelog.com/en/kyoto/A2601/A260202/26001495/,35.01171700327831,135.7694718010293,17499.5,"Kyoto Shiyakusho Mae Sta., Teppanyaki, Steak",Japanese
70,shikinouta Kyoto Ekimae Ten,3.13,https://tabelog.com/en/kyoto/A2601/A260101/26038652/,34.98801843788054,135.7605139801904,3499.5,"Kyoto Sta., Izakaya (Tavern), Seafood, Shabu shabu (Japanese hotpot)",Japanese
71,OCTAVAR,3.34,https://tabelog.com/en/kyoto/A2601/A260101/26025629/,34.983689237883446,135.7609929801463,4499.5,"Kyoto Sta., Dining bar, Italian, Pizza",Italian
72,NIKUMON Kawaramachi Takeyamachi Ten,3.29,https://tabelog.com/en/kyoto/A2601/A260202/26040878/,35.01581535862529,135.76875026114234,4499.5,"Jingu Marutamachi Sta., Yakiniku (BBQ Beef), Motsu Nabe (Offel Hot Pot), Horumon (BBQ Offel)",Japanese
73,Nikuya no Daidokoro Kyoto Kiyamachi Meat,3.07,https://tabelog.com/en/kyoto/A2601/A260201/26025288/,35.008282945920826,135.77060408732555,3499.5,"Sanjo Sta., Yakiniku (BBQ Beef), Horumon (BBQ Offel), Izakaya (Tavern)",Japanese
74,sumiyaki unagi doikatsuman Kinkakuji Ten,3.08,https://tabelog.com/en/kyoto/A2601/A260501/26040795/,35.03860905297589,135.73343494461636,4499.5,"Kitano Hakubaicho Sta., Unagi (Eel), Izakaya (Tavern), Japanese Cuisine",Japanese
75,Tendan Gionhonten,3.38,https://tabelog.com/en/kyoto/A2601/A260301/26001422/,35.00249453787499,135.77198168032854,6999.5,"Gion Shijo Sta., Yakiniku (BBQ Beef), Horumon (BBQ Offel)",Japanese
76,Shizen Shusai Ichishun,3.23,https://tabelog.com/en/kyoto/A2601/A260101/26038857/,34.98935363787884,135.75783438020574,4499.5,"Kyoto Sta., Izakaya (Tavern), Japanese Cuisine, Seafood",Japanese
77,teppanyakikouberoimbetteikyousaien Hanamikoji Ten,-,https://tabelog.com/en/kyoto/A2601/A260301/26041979/,35.00406763765406,135.77485170641947,12499.5,"Gion Shijo Sta., Steak, Teppanyaki",Japanese
78,Sakana to Seafood Tomoshibi Second,3.02,https://tabelog.com/en/kyoto/A2601/A260201/26040377/,35.00138445865406,135.75845702859294,2499.5,"Shijo Sta., Izakaya (Tavern), Seafood, Motsu Nabe (Offel Hot Pot)",Japanese
79,Stars'n Cacio KYOTO,3.31,https://tabelog.com/en/kyoto/A2601/A260201/26034775/,35.00629153787083,135.7664542803708,8999.5,"Kyoto Kawaramachi Sta., Italian, Steak",Italian
80,Hyssop,3.48,https://tabelog.com/en/kyoto/A2601/A260201/26033518/,35.00238438320756,135.76906059820382,5499.5,"Kyoto Kawaramachi Sta., Cafe, Dining bar",Cafe
81,Oniku to Bistro HaLe Resort Kyoto Kawaramachi Ten,3.29,https://tabelog.com/en/kyoto/A2601/A260201/26027041/,35.007203637871214,135.76948978037788,4499.5,"Sanjo Sta., Bistro, Baru (Spanish style bar), Steak",Spanish
82,Kyoya THE KIYOMIZU Miyukicho,3.12,https://tabelog.com/en/kyoto/A2601/A260201/26038044/,35.00189022241871,135.7663711220944,4499.5,"Kyoto Kawaramachi Sta., Izakaya (Tavern), Creative, Japanese Cuisine",Japanese
83,Kyoto Kanigin Kawaramachi Ten,3.20,https://tabelog.com/en/kyoto/A2601/A260201/26040365/,35.00654283466242,135.76948176065255,6999.5,"Kyoto Kawaramachi Sta., Crab, Shabu shabu (Japanese hotpot), Sushi",Japanese
84,Kani Kani Land Kyoto Gion Ten,3.23,https://tabelog.com/en/kyoto/A2601/A260301/26040419/,35.00569153787364,135.77407418035938,12499.5,"Gion Shijo Sta., Crab, Seafood, Izakaya (Tavern)",Japanese
85,OBENKEI Kyoto Gion Ten,3.14,https://tabelog.com/en/kyoto/A2601/A260301/26040420/,35.00569153787364,135.77407418035938,8999.5,"Gion Shijo Sta., Sushi, Seafood, Izakaya (Tavern)",Japanese
86,wamon,3.08,https://tabelog.com/en/kyoto/A2601/A260101/26041413/,34.98742999297652,135.7601050860411,3499.5,"Kyoto Sta., Izakaya (Tavern), Motsu Nabe (Offel Hot Pot), Kamameshi",Japanese
87,Kyoto Diner,3.46,https://tabelog.com/en/kyoto/A2601/A260201/26019479/,35.00540053787057,135.76388818036358,4499.5,"Karasuma Sta., Baru (Spanish style bar), Italian, Wine bar",Italian
88,Kyo Korean Do Ajoshigionhonten,3.51,https://tabelog.com/en/kyoto/A2601/A260301/26041488/,35.003078603714954,135.7733078675167,5499.5,"Gion Shijo Sta., Korean cold noodles, Korean, Izakaya (Tavern)",Korean
89,Wagyu Yakiniku Horumon Sankichi Karasuma Honten,3.07,https://tabelog.com/en/kyoto/A2601/A260202/26040165/,35.008517268571325,135.76129456576268,4499.5,"Karasuma Oike Sta., Yakiniku (BBQ Beef), Horumon (BBQ Offel)",Japanese
90,Yakiniku Horumo Daigoro,3.25,https://tabelog.com/en/kyoto/A2601/A260301/26024703/,35.00424023787463,135.77432108034455,5499.5,"Gion Shijo Sta., Yakiniku (BBQ Beef), Horumon (BBQ Offel), Korean cold noodles",Korean
91,Steak no Don Jujo Shinsembon Ten,3.04,https://tabelog.com/en/kyoto/A2601/A260604/26011649/,34.97352793788379,135.74180338005715,1499.5,"Jujo Sta., Steak, Hamburger steak, Family restaurant",American
92,CHAPTER THE GRILL,3.20,https://tabelog.com/en/kyoto/A2601/A260202/26037096/,35.01405305711698,135.7691118925085,5499.5,"Kyoto Shiyakusho Mae Sta., Restaurants, Italian, Cafe",Italian
93,Korean Ryori Shigor,3.04,https://tabelog.com/en/kyoto/A2601/A260101/26029264/,34.98070233788564,135.76189168011553,3499.5,"Kujo Sta., Korean, Izakaya (Tavern), Hot Pot",Korean
94,Gion Yuzuki,3.05,https://tabelog.com/en/kyoto/A2601/A260301/26041411/,35.005012437874,135.77386118035267,8999.5,"Gion Shijo Sta., Japanese Cuisine, Izakaya (Tavern)",Japanese
95,Miyagawacho Saka,3.55,https://tabelog.com/en/kyoto/A2601/A260301/26007250/,34.99912393149148,135.77094281422538,24999.5,"Gion Shijo Sta., Italian, French, Pasta",Italian
96,Niku Ryori Yoki,3.01,https://tabelog.com/en/kyoto/A2601/A260201/26039770/,35.00512283786904,135.75848458036458,4499.5,"Karasuma Sta., Yakiniku (BBQ Beef), Horumon (BBQ Offel), Korean cold noodles",Korean
97,boogaloo cafe Teramachi Ten,3.34,https://tabelog.com/en/kyoto/A2601/A260201/26025890/,35.00663694830622,135.7670225161149,2499.5,"Kyoto Kawaramachi Sta., Cafe, Italian, Baru (Spanish style bar)",Italian
98,Charcoal,3.34,https://tabelog.com/en/kyoto/A2601/A260201/26020006/,35.00406591949416,135.75599049514244,3499.5,"Shijo Sta., Italian, Baru (Spanish style bar), Izakaya (Tavern)",Italian
99,Kyouto Chukaryouri Seikaen Keyamachiten,3.02,https://tabelog.com/en/kyoto/A2601/A260301/26041777/,35.007207229389415,135.77070385079037,2499.5,"Sanjo Sta., Izakaya (Tavern), Chinese, Dumplings",Chinese
100,Sakana to Kamameshi Suishin Sain Ten,3.05,https://tabelog.com/en/kyoto/A2601/A260401/26003335/,35.002731193437015,135.7316950743278,3499.5,"Saiin Sta., Izakaya (Tavern), Yakitori (Grilled chicken skewers), Seafood",Japanese
101,Kitchen Tomato,3.12,https://tabelog.com/en/kyoto/A2601/A260202/26038603/,35.0175158163741,135.75662829038913,3499.5,"Marutamachi Sta., Italian, Dining bar, Izakaya (Tavern)",Italian
102,Raclette loom,3.14,https://tabelog.com/en/kyoto/A2601/A260201/26038801/,34.99880213787576,135.76699258029478,4499.5,"Kiyomizu Gojo Sta., Baru (Spanish style bar), Italian",Italian
103,Kuroge Wagyu Tan to Harami Yakiniku Ryu,3.23,https://tabelog.com/en/kyoto/A2601/A260201/26042170/,35.00540070569766,135.76941289579094,5499.5,"Kyoto Kawaramachi Sta., Yakiniku (BBQ Beef), Horumon (BBQ Offel), Izakaya (Tavern)",Japanese
104,Niku Mon Shijoomiya Honten,3.37,https://tabelog.com/en/kyoto/A2601/A260203/26024455/,35.00429953786637,135.74849048036327,4499.5,"Omiya Sta., Yakiniku (BBQ Beef), Motsu Nabe (Offel Hot Pot), Izakaya (Tavern)",Japanese
105,kyounokawabata,3.12,https://tabelog.com/en/kyoto/A2601/A260301/26042226/,35.00476752155462,135.77249075916083,5499.5,"Gion Shijo Sta., Izakaya (Tavern)",Japanese
106,Gion Sushi Taku,3.40,https://tabelog.com/en/kyoto/A2601/A260301/26040681/,35.004756184175235,135.77537024276424,17499.5,"Gion Shijo Sta., Sushi, Seafood, Unagi (Eel)",Japanese
107,Kizakura Jiroku Tei,3.27,https://tabelog.com/en/kyoto/A2601/A260301/26001187/,35.00830350008326,135.77065019366114,3499.5,"Sanjo Sta., Izakaya (Tavern), Japanese Cuisine, Hot Pot",Japanese
108,Kyo Gochisou Ishimaru,3.11,https://tabelog.com/en/kyoto/A2601/A260101/26025477/,34.98907653787782,135.75408308020556,8999.5,"Kyoto Sta., Japanese Cuisine, Seafood",Japanese
109,Kappa Sushi Muko Ten,3.02,https://tabelog.com/en/kyoto/A2607/A260702/26020811/,34.943838937894775,135.71710127977457,1499.5,"Nishi Muko Sta., Kaiten sushi (Conveyor belt sushi)",Japanese
110,Private room × Kyo Izakaya Kyojinbei,3.07,https://tabelog.com/en/kyoto/A2601/A260101/26031679/,34.98742713788122,135.76144108018377,3499.5,"Kyoto Sta., Izakaya (Tavern), Japanese Cuisine, Shabu shabu (Japanese hotpot)",Japanese
111,Hikohachi,3.09,https://tabelog.com/en/kyoto/A2601/A260301/26016449/,35.000418626906026,135.77733611254178,5499.5,"Gion Shijo Sta., Sushi, Seafood, Izakaya (Tavern)",Japanese
112,genshisumiyakihamaichi Kyoto Ekimae Ten,3.02,https://tabelog.com/en/kyoto/A2601/A260101/26041968/,34.986912855434994,135.76178635911043,4499.5,"Kyoto Sta., Izakaya (Tavern), Seafood, Regional Cuisine",Japanese
113,Omi-gyu Sukiyaki Shabushabu Miyako,3.05,https://tabelog.com/en/kyoto/A2601/A260201/26041499/,35.0084445730355,135.76932946351909,6999.5,"Sanjo Sta., Sukiyaki, Shabu shabu (Japanese hotpot), Sushi",Japanese
114,Jukusei Yakiniku Pound Shijoomiya Ten,3.06,https://tabelog.com/en/kyoto/A2601/A260203/26023889/,35.0045441378661,135.748128280366,5499.5,"Omiya Sta., Yakiniku (BBQ Beef), Horumon (BBQ Offel), Hamburger steak",Japanese
115,Roast Chicken Dining Yoshida Chicken,3.30,https://tabelog.com/en/kyoto/A2601/A260302/26026321/,35.02849833786265,135.78505838058206,3499.5,"Mototanaka Sta., Restaurants, Dining bar, Curry",Japanese
116,la princesse Kyoto,3.25,https://tabelog.com/en/kyoto/A2601/A260202/26035086/,35.00730033786851,135.7611497803847,5499.5,"Karasuma Sta., French, Baru (Spanish style bar), Italian",Italian
117,Yakiniku no Meimon Tendan Sain Ten,3.09,https://tabelog.com/en/kyoto/A2601/A260401/26001442/,35.00267103786206,135.7317053803586,6999.5,"Saiin Sta., Yakiniku (BBQ Beef), Korean, Horumon (BBQ Offel)",Korean
118,KOTOWARI,3.32,https://tabelog.com/en/kyoto/A2601/A260201/26035463/,35.00780563787048,135.76839418038472,4499.5,"Kyoto Shiyakusho Mae Sta., Japanese Cuisine, Izakaya (Tavern), Cafe",Cafe
119,Sakura Cafe Hanon,3.21,https://tabelog.com/en/kyoto/A2601/A260201/26041229/,35.00320333787404,135.77036148033685,1499.5,"Gion Shijo Sta., Cafe, Pancake",Cafe
120,tori ie bisu,3.12,https://tabelog.com/en/kyoto/A2601/A260201/26041893/,35.00275829684966,135.75686464941603,5499.5,"Shijo Sta., Izakaya (Tavern)",Japanese
121,Seafood Izakaya Matsuri 〜Shungyo to Kyo Yasai to Osake no Omise〜,3.06,https://tabelog.com/en/kyoto/A2601/A260201/26024076/,35.004009278770866,135.77030080512318,3499.5,"Kyoto Kawaramachi Sta., Izakaya (Tavern), Seafood, Japanese Cuisine",Japanese
122,Tankuma Kita Mise Rigaroiyaruhoterukyototen,3.44,https://tabelog.com/en/kyoto/A2601/A260101/26000882/,34.986163051295684,135.75250521998598,12499.5,"Kyoto Sta., Japanese Cuisine, Seafood",Japanese
123,Yakiniku Riki,3.25,https://tabelog.com/en/kyoto/A2601/A260201/26037000/,35.00244819989481,135.76531785054485,4499.5,"Kyoto Kawaramachi Sta., Yakiniku (BBQ Beef), Horumon (BBQ Offel), Izakaya (Tavern)",Japanese
124,Tajimaya Kyotoyodobashiten,3.26,https://tabelog.com/en/kyoto/A2601/A260101/26017013/,34.98808268235511,135.75904097769754,2499.5,"Kyoto Sta., Shabu shabu (Japanese hotpot), Sukiyaki, Buffet style",Japanese
125,Sumibi Yakiniku Yakiniku no Iwa San,3.25,https://tabelog.com/en/kyoto/A2601/A260201/26022036/,35.00807123787067,135.7695500803866,4499.5,"Sanjo Sta., Yakiniku (BBQ Beef), Horumon (BBQ Offel), Korean",Korean
126,SEKAIYA,3.40,https://tabelog.com/en/kyoto/A2601/A260201/26004590/,35.004990305736136,135.75831887032177,4499.5,"Karasuma Sta., Dining bar, Creative, Izakaya (Tavern)",Japanese
127,Taishu Sumibi Yakiton Butta Sain Ten,3.32,https://tabelog.com/en/kyoto/A2601/A260401/26017285/,35.002914037861856,135.73154308036115,3499.5,"Saiin Sta., Izakaya (Tavern), Grilled tripe, Horumon (BBQ Offel)",Japanese
128,CLOUD 10,3.08,https://tabelog.com/en/kyoto/A2601/A260202/26035630/,35.00662328741824,135.76408914924863,2499.5,"Karasuma Sta., Bar, Pub",Bar
129,Nikudokoro Danro Kyoto Satocho Ten,3.08,https://tabelog.com/en/kyoto/A2601/A260201/26037613/,35.00598439437902,135.77103108629242,6999.5,"Gion Shijo Sta., Yakiniku (BBQ Beef), Korean, Horumon (BBQ Offel)",Korean
130,Fuyouen Hinabejou Kyobashi Ten,3.08,https://tabelog.com/en/kyoto/A2601/A260301/26032604/,35.00793964971933,135.77062771228057,3499.5,"Sanjo Sta., Fire Pot, Shabu shabu (Japanese hotpot), Sichuan Cuisine",Japanese
131,Seiwa So,3.35,https://tabelog.com/en/kyoto/A2601/A260601/26003451/,34.94904113790595,135.7625666797952,17499.5,"Fushimi Sta., Japanese Cuisine, Tempura, Hot Pot",Japanese
132,Fuubito Suuro,3.32,https://tabelog.com/en/kyoto/A2601/A260201/26027706/,35.00249902193137,135.7649823205151,3499.5,"Kyoto Kawaramachi Sta., Baru (Spanish style bar), Steak, Meat dishes",Spanish
133,Sumibi Yaki Kotepan,3.05,https://tabelog.com/en/kyoto/A2601/A260201/26040680/,35.004869135143366,135.77007428850337,4499.5,"Kyoto Kawaramachi Sta., Yakitori (Grilled chicken skewers), Izakaya (Tavern), Chicken dishes",Japanese
134,Yakiniku Toraji Kyobashi Ten,3.14,https://tabelog.com/en/kyoto/A2601/A260101/26016846/,34.98825210843976,135.7590273599165,6999.5,"Kyoto Sta., Yakiniku (BBQ Beef), Horumon (BBQ Offel), Korean",Korean
135,Kimchi no Mizuno,3.24,https://tabelog.com/en/kyoto/A2601/A260203/26027964/,35.00371373786469,135.74204428036185,4499.5,"Shijo Omiya Sta., Korean, Korean cold noodles, Izakaya (Tavern)",Korean
136,Shunsai Sengyo Banquet Nishiki.,3.26,https://tabelog.com/en/kyoto/A2601/A260201/26004122/,35.00513671770971,135.76053701269754,5499.5,"Karasuma Sta., Izakaya (Tavern), Seafood, Oyster",Japanese
137,Gion Sushi Yoshi,3.16,https://tabelog.com/en/kyoto/A2601/A260301/26036304/,35.004312737874514,135.77409288034542,17499.5,"Gion Shijo Sta., Sushi, Seafood, Japanese Cuisine",Japanese
138,hoheto,-,https://tabelog.com/en/kyoto/A2601/A260201/26042586/,35.00481123787316,135.77081658035277,,"Gion Shijo Sta., Sukiyaki",Japanese
139,sumitokaisentokushiyakitosakanatottotto Shijo Kawaramachi Ten,3.48,https://tabelog.com/en/kyoto/A2601/A260201/26042169/,35.005412789152565,135.769399484746,3499.5,"Kyoto Kawaramachi Sta., Izakaya (Tavern), Motsu Nabe (Offel Hot Pot), Yakitori (Grilled chicken skewers)",Japanese
140,Sherry Club Kyoto Ishibei Koji,3.52,https://tabelog.com/en/kyoto/A2601/A260301/26007263/,35.000920737878225,135.77896108030777,5499.5,"Gion Shijo Sta., Spain, Baru (Spanish style bar), European",Spanish
141,Izakaya Makoto,3.03,https://tabelog.com/en/kyoto/A2601/A260401/26028652/,35.00209680947271,135.73127291637397,4499.5,"Saiin Sta., Izakaya (Tavern), Japanese Cuisine, Seafood",Japanese
142,Gion Roka,3.08,https://tabelog.com/en/kyoto/A2601/A260301/26041424/,35.00167878726408,135.77833041638888,24999.5,"Gion Shijo Sta., Japanese Cuisine, Creative",Japanese
143,Daruma Kyoto Kawaramachi Ten,3.18,https://tabelog.com/en/kyoto/A2601/A260201/26041448/,35.00654283466242,135.76948176065255,3499.5,"Kyoto Kawaramachi Sta., Izakaya (Tavern), Sushi, Yakitori (Grilled chicken skewers)",Japanese
144,Pontocho Yakiniku Yamakawa Hon Ten,3.03,https://tabelog.com/en/kyoto/A2601/A260201/26031987/,35.0075377378715,135.77109288038014,6999.5,"Sanjo Sta., Yakiniku (BBQ Beef)",Japanese
145,Osake to Ganjang Miroku,3.25,https://tabelog.com/en/kyoto/A2601/A260601/26036861/,34.935183537914256,135.7610334796563,5499.5,"Fushimi Momoyama Sta., Korean, Izakaya (Tavern), Korean cold noodles",Korean
146,Yakiniku Kappou Amano,3.05,https://tabelog.com/en/kyoto/A2601/A260101/26041700/,34.99924104372549,135.75527650916555,12499.5,"Shijo Sta., Yakiniku (BBQ Beef), Meat dishes, Japanese Cuisine",Japanese
147,Minokichi Shin Hankyu Hoteru Ten,3.37,https://tabelog.com/en/kyoto/A2601/A260101/26000869/,34.98743023058169,135.75780666580275,6999.5,"Kyoto Sta., Japanese Cuisine, Unagi (Eel), Seafood",Japanese
148,Steak no Don Uji Ten,3.04,https://tabelog.com/en/kyoto/A2607/A260701/26017864/,34.887963137956135,135.79831267915324,1499.5,"Uji Sta., Steak, Hamburger steak, Family restaurant",American
149,Trattoria ISUQO,3.22,https://tabelog.com/en/kyoto/A2601/A260201/26033368/,35.00223453787444,135.76968738032755,3499.5,"Kyoto Kawaramachi Sta., Italian, Baru (Spanish style bar), Steak",Italian
150,Teramachi Kamoharu,3.37,https://tabelog.com/en/kyoto/A2601/A260201/26040675/,35.00120141836404,135.7670099896392,4499.5,"Kyoto Kawaramachi Sta., Japanese Cuisine, Izakaya (Tavern), Ramen",Japanese
151,Gyoza Shokudo Maruken Yamashina Ten,3.02,https://tabelog.com/en/kyoto/A2601/A260603/26035363/,34.99098093789639,135.81618658018127,2499.5,"Keihan Yamashina Sta., Izakaya (Tavern), Dumplings, Cafeteria",Cafe
152,Nanzenji Sandou Kikusui,3.59,https://tabelog.com/en/kyoto/A2601/A260301/26028346/,35.010458737875446,135.7892416803969,17499.5,"Keage Sta., Ryokan, Japanese Cuisine, Italian",Italian
153,Korean Ryori Anpan,3.26,https://tabelog.com/en/kyoto/A2601/A260202/26007183/,35.00850906198768,135.75636970352326,3499.5,"Karasuma Oike Sta., Korean, Izakaya (Tavern), Yakiniku (BBQ Beef)",Korean
154,Mikuri Kua,3.08,https://tabelog.com/en/kyoto/A2601/A260201/26041406/,35.00662013786696,135.75495798038216,3499.5,"Karasuma Sta., Izakaya (Tavern), Tonkatsu (Pork cutlet), Deep-fried foods",Japanese
155,Kyoto Niku Kappou Miyata,3.13,https://tabelog.com/en/kyoto/A2601/A260101/26039467/,34.990255137877774,135.75629098021594,17499.5,"Kyoto Sta., Beef dishes",Japanese
156,Kodawari Tempura to Umai Sakana Kodawariya Fushimi Momoyama Ten,3.10,https://tabelog.com/en/kyoto/A2601/A260601/26030263/,34.93314504301554,135.76451444144496,3499.5,"Fushimi Momoyama Sta., Izakaya (Tavern), Tempura, Seafood",Japanese
157,sebun emba-zu,3.12,https://tabelog.com/en/kyoto/A2601/A260202/26041843/,35.010033237869415,135.7694679804065,12499.5,"Kyoto Shiyakusho Mae Sta., European",European
158,Tendan Katsura Gojo Ten,3.12,https://tabelog.com/en/kyoto/A2601/A260401/26001443/,34.984262637861924,135.69456388019864,5499.5,"Kami Katsura Sta., Yakiniku (BBQ Beef)",Japanese
159,Niomon Mui,3.66,https://tabelog.com/en/kyoto/A2601/A260301/26036035/,35.011864637869444,135.77318388042235,17499.5,"Sanjo Keihan Sta., Japanese Cuisine",Japanese
160,Sumibi Kushiyaki Nabariya,3.15,https://tabelog.com/en/kyoto/A2601/A260302/26031516/,35.02870569941513,135.7732688405599,4499.5,"Demachiyanagi Sta., Wild game dishes, Izakaya (Tavern), Meat dishes",Japanese
161,Takasegawa Maki,3.40,https://tabelog.com/en/kyoto/A2601/A260201/26032291/,35.00215863787453,135.76986148032665,8999.5,"Kyoto Kawaramachi Sta., Japanese Cuisine, Seafood, Kaisen-don (Seafood bowl)",Japanese
162,TRATTORIA ACCA,3.32,https://tabelog.com/en/kyoto/A2601/A260401/26030620/,35.00033133786307,135.730183980336,4499.5,"Saiin Sta., Italian, Cafe, Izakaya (Tavern)",Italian
163,Nishiki Yamachi Nikushin,3.32,https://tabelog.com/en/kyoto/A2601/A260201/26035568/,35.00328903093149,135.77033517292114,4499.5,"Gion Shijo Sta., Yakiniku (BBQ Beef), Steak, Izakaya (Tavern)",Japanese
164,Tenka no Yakiniku Daishogun Shijoomiya Ten,3.30,https://tabelog.com/en/kyoto/A2601/A260203/26002935/,35.00325534403891,135.74988770596548,3499.5,"Omiya Sta., Yakiniku (BBQ Beef), Korean, Buffet style",Korean
165,Shunsai Dining eーtoko Ya,3.10,https://tabelog.com/en/kyoto/A2601/A260201/26026731/,35.00743996600584,135.76977252853206,3499.5,"Sanjo Sta., Izakaya (Tavern), Vegetable dishes, Creative",Japanese
166,Tenshin Ranman Kawaramachi Ten,3.40,https://tabelog.com/en/kyoto/A2601/A260201/26038085/,35.00381758780222,135.7704665265654,3499.5,"Gion Shijo Sta., Hot Pot, Japanese Cuisine, Izakaya (Tavern)",Japanese
167,Emba Kyoto Chophouse,3.12,https://tabelog.com/en/kyoto/A2601/A260301/26041311/,34.99118093788338,135.77572228021165,17499.5,"Shichijo Sta., Steak",Mixed
168,Kanga An,3.58,https://tabelog.com/en/kyoto/A2601/A260503/26000619/,35.03796684728964,135.76225452516596,8999.5,"Kuramaguchi Sta., Japanese Cuisine, Medicinal",Japanese
169,KAENZAN,3.02,https://tabelog.com/en/kyoto/A2601/A260201/26041407/,35.00320279225232,135.77036161924045,3499.5,"Gion Shijo Sta., Kushiyaki, Izakaya (Tavern)",Japanese
170,Washoku Uoman Miyakohoteru Kyoto Hachijo Ten,3.33,https://tabelog.com/en/kyoto/A2601/A260101/26033908/,34.98379803788177,135.75592538015096,4499.5,"Kyoto Sta., Japanese Cuisine, Tofu dishes, Hot Pot",Japanese
171,Kamo Ryori Kamo Pato Kyoto,3.12,https://tabelog.com/en/kyoto/A2601/A260101/26040857/,34.986715899362096,135.7553713260861,8999.5,"Kyoto Sta., Chicken dishes, Shabu shabu (Japanese hotpot), Hot Pot",Japanese
172,hakonosushi iroakari,3.54,https://tabelog.com/en/kyoto/A2601/A260301/26041771/,35.00558194082836,135.77603681605274,4499.5,"Gion Shijo Sta., Sushi, Seafood",Japanese
173,Kyoto Sakaba Akamaru,3.25,https://tabelog.com/en/kyoto/A2601/A260201/26021711/,35.00234233786944,135.75424378033946,3499.5,"Omiya Sta., Izakaya (Tavern), Seafood, Japanese Cuisine",Japanese
174,Tokusen Wagyu Yakiniku to Shabushabu Issunboushi Emion Kyoto Ten,3.22,https://tabelog.com/en/kyoto/A2601/A260203/26034967/,34.9894737378738,135.74227298021785,6999.5,"Umekoji Kyotonishi Sta., Yakiniku (BBQ Beef), Shabu shabu (Japanese hotpot), Izakaya (Tavern)",Japanese
175,Saganoya,3.13,https://tabelog.com/en/kyoto/A2601/A260403/26010803/,35.01817333783618,135.68136538055046,2499.5,"Saga Arashiyama Sta., Cafeteria",Cafe
176,Tozanbo Tamanohikari,3.27,https://tabelog.com/en/kyoto/A2601/A260201/26033811/,35.00506829984569,135.77118140960934,8999.5,"Gion Shijo Sta., Japanese Cuisine, Shabu shabu (Japanese hotpot)",Japanese
177,Gion Ichirinka,3.23,https://tabelog.com/en/kyoto/A2601/A260301/26039016/,35.00532203787446,135.7759136803544,5499.5,"Gion Shijo Sta., Chinese, Wine bar, Dim sum",Chinese
178,mane,3.59,https://tabelog.com/en/kyoto/A2601/A260202/26041109/,35.01355873786616,135.7662972804443,17499.5,"Kyoto Shiyakusho Mae Sta., Italian",Italian
179,Kyoto Yakiniku Nandaimon Shijo Teramachi Ten,3.12,https://tabelog.com/en/kyoto/A2601/A260201/26030403/,35.0045691124011,135.76693511858022,5499.5,"Kyoto Kawaramachi Sta., Yakiniku (BBQ Beef), Horumon (BBQ Offel), Steak",Japanese
180,Kyo Yakiniku Shin Sentochoten,3.42,https://tabelog.com/en/kyoto/A2601/A260301/26033378/,35.00551158511932,135.77114444782492,8999.5,"Gion Shijo Sta., Yakiniku (BBQ Beef), Horumon (BBQ Offel), Korean",Korean
181,Teppan to Ate Fufu Shijo Karasuma Ten,3.12,https://tabelog.com/en/kyoto/A2601/A260201/26041637/,35.00506672214001,135.76036203045254,3499.5,"Karasuma Sta., Izakaya (Tavern), Dumplings, Chinese",Chinese
182,Yakiniku Yuen,3.03,https://tabelog.com/en/kyoto/A2601/A260301/26019053/,35.004335149939806,135.7771931663114,5499.5,"Gion Shijo Sta., Yakiniku (BBQ Beef), Korean, Izakaya (Tavern)",Korean
183,Pontocho Shisui,3.01,https://tabelog.com/en/kyoto/A2601/A260201/26039602/,35.005590637872764,135.77113918036045,3499.5,"Gion Shijo Sta., Izakaya (Tavern), Japanese Cuisine, Hot Pot",Japanese
184,Kyoto Mojio Karasuma Ten,3.05,https://tabelog.com/en/kyoto/A2601/A260201/26041037/,35.00262522695808,135.7625474340775,2499.5,"Karasuma Sta., Monjyayaki, Izakaya (Tavern)",Japanese
185,Katsugyo Izakaya Marufuku,3.31,https://tabelog.com/en/kyoto/A2601/A260201/26037032/,35.00412723787356,135.77072188034592,8999.5,"Gion Shijo Sta., Izakaya (Tavern), Seafood, Fugu (Pufferfish)",Japanese
186,SCALAE,3.65,https://tabelog.com/en/kyoto/A2601/A260101/26031801/,34.98654773788176,135.7613909801749,8999.5,"Kyoto Sta., Italian, Buffet style, Wine bar",Italian
187,Ikkakuju Karasuma Ten,3.30,https://tabelog.com/en/kyoto/A2601/A260201/26018057/,35.00248201851957,135.76150233253284,3499.5,"Shijo Sta., Izakaya (Tavern), Teppanyaki, Okonomiyaki (Japanese savory pancake)",Japanese
188,yakiniku horomo mmi yamoto,3.01,https://tabelog.com/en/kyoto/A2601/A260401/26041933/,35.00338305335041,135.73084733694174,5499.5,"Saiin Sta., Yakiniku (BBQ Beef), Izakaya (Tavern), Horumon (BBQ Offel)",Japanese
189,Gokyo Nishijin Honten,3.09,https://tabelog.com/en/kyoto/A2601/A260503/26022937/,35.03818563784581,135.75149088070344,3499.5,"Kuramaguchi Sta., Yakiniku (BBQ Beef), Horumon (BBQ Offel), Izakaya (Tavern)",Japanese
190,Kyokushi Katsu Todoroki,3.12,https://tabelog.com/en/kyoto/A2601/A260301/26038720/,35.004569837778305,135.77666181074605,4499.5,"Gion Shijo Sta., Kushi-age (Deep-fried skewers), Izakaya (Tavern)",Japanese
191,Kyokaiseki Minokichi Hankyu Shijo Kawaramachi Ten,3.12,https://tabelog.com/en/kyoto/A2601/A260201/26002738/,35.003506773508434,135.76965327508276,6999.5,"Kyoto Kawaramachi Sta., Japanese Cuisine, Unagi (Eel), Seafood",Japanese
192,Tori See Takoyakushi Ten,3.37,https://tabelog.com/en/kyoto/A2601/A260202/26026212/,35.006056079789424,135.76145133887815,3499.5,"Karasuma Sta., Yakitori (Grilled chicken skewers), Izakaya (Tavern), Chicken dishes",Japanese
193,Sazanka Tei Hon Ten,3.05,https://tabelog.com/en/kyoto/A2601/A260202/26004084/,35.0078049971603,135.770681243803,2499.5,"Sanjo Sta., Izakaya (Tavern), Yakitori (Grilled chicken skewers), Sushi",Japanese
194,Kyoto Dining Masayoshi,3.44,https://tabelog.com/en/kyoto/A2601/A260201/26027397/,35.008480131157896,135.76969415381666,5499.5,"Sanjo Sta., Steak, Japanese Cuisine, Sukiyaki",Japanese
195,Kyo no Shiki Irodori,3.11,https://tabelog.com/en/kyoto/A2601/A260101/26002874/,34.98759162068788,135.75886462606402,5499.5,"Kyoto Sta., Izakaya (Tavern), Seafood, Japanese Cuisine",Japanese
196,Kyogamo to Sake Kamokura,3.23,https://tabelog.com/en/kyoto/A2601/A260201/26041348/,35.003189340564695,135.77066213816133,4499.5,"Gion Shijo Sta., Izakaya (Tavern), Sukiyaki, Shabu shabu (Japanese hotpot)",Japanese
197,Kagayaki Tei,3.40,https://tabelog.com/en/kyoto/A2601/A260301/26000743/,35.00349073787029,135.75913778034766,3499.5,"Shijo Sta., Izakaya (Tavern), Japanese Cuisine",Japanese
198,Kanzan,3.65,https://tabelog.com/en/kyoto/A2601/A260201/26028193/,34.99999064222352,135.7628701114242,17499.5,"Shijo Sta., Japanese Cuisine, Kamameshi",Japanese
199,Private rooms Kukan Sumibi Yakitori Takara Ya Hachijo Guchi Ten,3.09,https://tabelog.com/en/kyoto/A2601/A260101/26006664/,34.98176913788465,135.76094928012694,3499.5,"Kujo Sta., Izakaya (Tavern), Yakitori (Grilled chicken skewers), Hot Pot",Japanese
200,YAMAMURA GYUUBEI Shijoomiya Ten,3.24,https://tabelog.com/en/kyoto/A2601/A260203/26029439/,35.005060969292096,135.74903186057574,4499.5,"Omiya Sta., Izakaya (Tavern), Italian, Yakiniku (BBQ Beef)",Italian
201,Shogetsu Kawaramachi Ten,3.19,https://tabelog.com/en/kyoto/A2601/A260201/26004071/,35.006766968069655,135.76895012782177,2499.5,"Kyoto Kawaramachi Sta., Okonomiyaki (Japanese savory pancake), Teppanyaki, Izakaya (Tavern)",Japanese
202,Izakaya Manpukuya Kyoto Kawaramachi Ten,3.22,https://tabelog.com/en/kyoto/A2601/A260202/26040783/,35.009103962864,135.7702404686118,3499.5,"Sanjo Sta., Izakaya (Tavern), Yakitori (Grilled chicken skewers), Hot Pot",Japanese
203,Kashiwa,3.32,https://tabelog.com/en/kyoto/A2601/A260401/26016011/,35.0028093788176,135.73036434200912,5499.5,"Saiin Sta., Yakitori (Grilled chicken skewers), Hot Pot, Izakaya (Tavern)",Japanese
204,Yakiniku Aji Doraku,3.19,https://tabelog.com/en/kyoto/A2609/A260902/26008298/,35.46976263745827,135.39529988531245,3499.5,"Higashi Maizuru Sta., Yakiniku (BBQ Beef), Horumon (BBQ Offel), Izakaya (Tavern)",Japanese
205,Touen Tei Honten,3.27,https://tabelog.com/en/kyoto/A2601/A260201/26000078/,35.00182332722222,135.7687809250405,3499.5,"Kyoto Kawaramachi Sta., Chinese, Dim sum",Chinese
206,Yamadaruma,3.07,https://tabelog.com/en/kyoto/A2601/A260202/26004367/,35.00734064699137,135.76044247463156,3499.5,"Karasuma Oike Sta., Izakaya (Tavern), Seafood, Nihonshu (Japanese sake)",Japanese
207,Italian Sakaba COVO,3.16,https://tabelog.com/en/kyoto/A2601/A260202/26038233/,35.009398362729314,135.7694910728499,4499.5,"Kyoto Shiyakusho Mae Sta., Italian, Pasta, Meat dishes",Italian
208,Ittetsu Grazie,3.36,https://tabelog.com/en/kyoto/A2601/A260201/26024556/,35.00469113787059,135.7625039803574,4499.5,"Karasuma Sta., Yakiniku (BBQ Beef), Baru (Spanish style bar), Izakaya (Tavern)",Spanish
209,Tempura TOHZAN,3.32,https://tabelog.com/en/kyoto/A2601/A260202/26031396/,35.01029770578749,135.76919383390594,5499.5,"Kyoto Shiyakusho Mae Sta., Tempura, Ten-don (Tempura bowl), Japanese Cuisine",Japanese
210,Kyo French to Teppanyaki En-EN-,3.01,https://tabelog.com/en/kyoto/A2601/A260601/26042000/,34.93241927721492,135.76393646730568,12499.5,"Fushimi Momoyama Sta., Teppanyaki, French",French
211,Kyoto Yakiniku enen Shijo Kawaramachi Ten,3.36,https://tabelog.com/en/kyoto/A2601/A260201/26036854/,35.002711437873074,135.76642028033467,4499.5,"Kyoto Kawaramachi Sta., Yakiniku (BBQ Beef), Horumon (BBQ Offel)",Japanese
212,Yakiniku Nishiki Henkotsu,3.37,https://tabelog.com/en/kyoto/A2601/A260201/26006117/,35.005290390436784,135.76500552340173,4499.5,"Kyoto Kawaramachi Sta., Yakiniku (BBQ Beef), Izakaya (Tavern), Motsu Nabe (Offel Hot Pot)",Japanese
213,Shokudo Mankichi,3.16,https://tabelog.com/en/kyoto/A2601/A260101/26040632/,34.98200503091797,135.76086305064516,6999.5,"Kujo Sta., Sushi, Japanese Cuisine, Seafood",Japanese
214,tonkatsu taku Kyoto gojyou ten,3.13,https://tabelog.com/en/kyoto/A2601/A260203/26041838/,34.9983246378673,135.7394649803092,2499.5,"Tambaguchi Sta., Tonkatsu (Pork cutlet)",Japanese
215,Gohan to Osake Jinsuke,3.02,https://tabelog.com/en/kyoto/A2601/A260202/26040572/,35.00848503786647,135.75715478039947,6999.5,"Karasuma Oike Sta., Izakaya (Tavern)",Japanese
216,Imoto Shokai,3.10,https://tabelog.com/en/kyoto/A2601/A260401/26037495/,35.004103237860896,135.7309015803736,3499.5,"Saiin Sta., Izakaya (Tavern), Japanese Cuisine, Nihonshu (Japanese sake)",Japanese
217,Kyoto Gyuu Kaiseki Inayoshi,3.46,https://tabelog.com/en/kyoto/A2601/A260202/26016564/,35.00618262596865,135.77123107640116,12499.5,"Gion Shijo Sta., Beef dishes, Sukiyaki, French",French
218,SOI GAENG,3.37,https://tabelog.com/en/kyoto/A2601/A260201/26039406/,34.99865879645896,135.76036399198887,3499.5,"Gojo Sta., Thai, Curry, Asian Cuisine, Ethnic Cuisine",Thai
219,Cafe Restaurant Lavender,3.13,https://tabelog.com/en/kyoto/A2601/A260601/26031960/,34.961323476928364,135.76789258572614,2499.5,"Ryukokudai Mae Fukakusa Sta., Buffet style, Cafe, Sweets",Cafe
220,Kenzo Estate Winery Gion Ten,3.40,https://tabelog.com/en/kyoto/A2601/A260301/26026031/,35.0041890032615,135.77426202758213,8999.5,"Gion Shijo Sta., Wine bar, French, Creative",French
221,Ginnan,3.08,https://tabelog.com/en/kyoto/A2601/A260101/26004002/,34.98938753905485,135.75882732425237,4499.5,"Kyoto Sta., Izakaya (Tavern), Tofu dishes, Creative",Japanese
222,Yakiniku An Kizashi Kyoto Ekimae Ten,3.13,https://tabelog.com/en/kyoto/A2601/A260101/26029974/,34.98942413787828,135.75622218020757,8999.5,"Kyoto Sta., Yakiniku (BBQ Beef), Izakaya (Tavern), Korean",Korean
223,Zuien Tei Hoterumontorekyoto,3.24,https://tabelog.com/en/kyoto/A2601/A260203/26004700/,35.00783083786757,135.75928058039136,12499.5,"Karasuma Oike Sta., Japanese Cuisine, Seafood",Japanese
224,Kyoya Kiyomizu Kiyamachi,3.43,https://tabelog.com/en/kyoto/A2601/A260201/26023213/,35.004566387850886,135.7699657003495,4499.5,"Kyoto Kawaramachi Sta., Izakaya (Tavern), Japanese Cuisine, Shabu shabu (Japanese hotpot)",Japanese
225,Oumi Yakiniku Horumon Sudaku Kyotohonten,3.08,https://tabelog.com/en/kyoto/A2601/A260401/26035618/,35.00374073786127,135.73134238036965,3499.5,"Saiin Sta., Yakiniku (BBQ Beef), Horumon (BBQ Offel), Ramen",Japanese
226,Pontocho Yakiniku Kiraku,3.49,https://tabelog.com/en/kyoto/A2601/A260301/26041041/,35.00717085465242,135.77129130367723,8999.5,"Sanjo Sta., Yakiniku (BBQ Beef), Horumon (BBQ Offel), Japanese Cuisine",Japanese
227,Ushi no Hone Hon Ten,3.45,https://tabelog.com/en/kyoto/A2601/A260201/26001079/,35.00744971026501,135.77109380724022,8999.5,"Sanjo Sta., Izakaya (Tavern), Japanese Cuisine",Japanese
228,Saryo Hassui,3.51,https://tabelog.com/en/kyoto/A2601/A260403/26025347/,35.01335515539184,135.67371190067783,,"Arashiyama Sta., Cafe, Sweets, Sweets",Cafe
229,Severance,3.41,https://tabelog.com/en/kyoto/A2601/A260301/26038827/,35.00935673787128,135.77399458039648,12499.5,"Sanjo Keihan Sta., French, Bistro, Yoshoku (Japanese style western cuisine)",French
230,Kyo Washoku Dining Chacha,3.08,https://tabelog.com/en/kyoto/A2601/A260203/26038255/,35.003833214266244,135.75454082807488,4499.5,"Shijo Sta., Tonkatsu (Pork cutlet), Izakaya (Tavern)",Japanese
231,Unagi Kappou Maehara,3.44,https://tabelog.com/en/kyoto/A2601/A260202/26006371/,35.0143915269944,135.75858202672845,8999.5,"Marutamachi Sta., Unagi (Eel), Japanese Cuisine, Shabu shabu (Japanese hotpot)",Japanese
232,Adan Kyotoekiten,3.30,https://tabelog.com/en/kyoto/A2601/A260101/26006548/,34.98765433788026,135.75888318018784,4499.5,"Kyoto Sta., Izakaya (Tavern), Okinawa cuisine, Hot Pot",Japanese
233,Rakuza Hareruya,3.32,https://tabelog.com/en/kyoto/A2601/A260201/26035207/,35.005418387555004,135.76244378581612,5499.5,"Karasuma Sta., Izakaya (Tavern), Sushi, Oden",Japanese
234,Gosho Delino,3.34,https://tabelog.com/en/kyoto/A2601/A260302/26035183/,35.01819489666427,135.76804939868344,6999.5,"Jingu Marutamachi Sta., Italian, Side dishes, Delicatessen, Pasta",Italian
235,accent Kyoto Kawaramachi,3.31,https://tabelog.com/en/kyoto/A2601/A260201/26039751/,35.00474093787291,135.76990778035272,4499.5,"Kyoto Kawaramachi Sta., Italian, Izakaya (Tavern), Baru (Spanish style bar)",Italian
236,maguronihonshusemmonginjoumaguro Kyoto Shijo Takakura Ten,-,https://tabelog.com/en/kyoto/A2601/A260201/26042396/,35.00280227982296,135.7625202888018,4499.5,"Karasuma Sta., Izakaya (Tavern), Seafood, Nihonshu (Japanese sake)",Japanese
237,Fuji Tora,3.42,https://tabelog.com/en/kyoto/A2601/A260301/26037984/,35.00228313787508,135.77183938032653,6999.5,"Gion Shijo Sta., Cafe, Sweets, Japanese Cuisine",Cafe
238,BURISHO,3.37,https://tabelog.com/en/kyoto/A2601/A260201/26037225/,34.99877883787465,135.76349358029697,6999.5,"Gojo Sta., Seafood, Shabu shabu (Japanese hotpot), Izakaya (Tavern)",Japanese
239,Iroha Karuta Kyoto Ekimae Ten,3.19,https://tabelog.com/en/kyoto/A2601/A260101/26000792/,34.987410526957646,135.75875075497,2499.5,"Kyoto Sta., Izakaya (Tavern), Yakitori (Grilled chicken skewers), Seafood",Japanese
240,Gion Shoga Gyoza Suzuchou,3.20,https://tabelog.com/en/kyoto/A2601/A260301/26040369/,35.00625709338195,135.77300203700557,2499.5,"Gion Shijo Sta., Dumplings, Oden, Izakaya (Tavern)",Japanese
241,wafuukafekinkouan,3.02,https://tabelog.com/en/kyoto/A2601/A260501/26042305/,35.036934176877544,135.7302722288384,,"Kitano Hakubaicho Sta., Cafe, Japanese sweets, Pudding",Cafe
242,Sake to Sakana to Otokomae Shokudo Jiro Sain Ekimae Ten,3.04,https://tabelog.com/en/kyoto/A2601/A260401/26029685/,35.00342163786184,135.7324916803656,3499.5,"Saiin Sta., Izakaya (Tavern), Seafood, Nihonshu (Japanese sake)",Japanese
243,Taiwan Mazemeshi Shufen,3.08,https://tabelog.com/en/kyoto/A2601/A260201/26040882/,35.00513828618536,135.77032408821478,2499.5,"Kyoto Kawaramachi Sta., Taiwan Cuisine, Chinese, Izakaya (Tavern)",Chinese
244,Kyoto Yakiniku Suzuki Pontocho Honten,3.16,https://tabelog.com/en/kyoto/A2601/A260201/26039824/,35.00418673787361,135.77097988034637,8999.5,"Gion Shijo Sta., Yakiniku (BBQ Beef), Horumon (BBQ Offel), Japanese Cuisine",Japanese
245,Bunta,3.01,https://tabelog.com/en/kyoto/A2607/A260702/26006587/,34.92607063789944,135.69630987960966,3499.5,"Nagaoka Tenjin Sta., Izakaya (Tavern), Chanko Nabe (Sumo Wrestlers Hot Pot), Seafood",Japanese
246,Figueras Karasuma Ten,3.28,https://tabelog.com/en/kyoto/A2601/A260201/26013556/,35.00620937902206,135.7604378048828,3499.5,"Karasuma Sta., Spain, Baru (Spanish style bar), Izakaya (Tavern)",Spanish
247,Wa Akira,3.07,https://tabelog.com/en/kyoto/A2601/A260603/26006253/,34.983284737901734,135.81760698010257,5499.5,"Higashino Sta., Izakaya (Tavern), Sushi",Japanese
248,GRILL 54TH,3.27,https://tabelog.com/en/kyoto/A2601/A260301/26032413/,35.009001237871466,135.77390748039292,8999.5,"Sanjo Keihan Sta., French, Yoshoku (Japanese style western cuisine), Steak",French
249,Kyo no Tachinomi Dokoro En,3.08,https://tabelog.com/en/kyoto/A2601/A260201/26040668/,35.00269203733817,135.76386573769372,2499.5,"Karasuma Sta., Izakaya (Tavern), Stand Bar, Regional Cuisine",Japanese
250,Kyogamo Hitsumabushi Kamoshigin,3.31,https://tabelog.com/en/kyoto/A2601/A260201/26039267/,35.00432187896013,135.76477892014643,3499.5,"Kyoto Kawaramachi Sta., Izakaya (Tavern), Oden, Shabu shabu (Japanese hotpot)",Japanese
251,Synager,3.61,https://tabelog.com/en/kyoto/A2601/A260202/26036071/,35.014440449269465,135.76079295196996,17499.5,"Marutamachi Sta., French, Innovative",French
252,Sumibi Kazuya,3.35,https://tabelog.com/en/kyoto/A2601/A260201/26019208/,35.00501440064363,135.7702609329809,5499.5,"Kyoto Kawaramachi Sta., Izakaya (Tavern), Seafood, Meat dishes",Japanese
253,Tenpu Shijo Kawaramachi Tempura to Ate to Wine,3.28,https://tabelog.com/en/kyoto/A2601/A260201/26039752/,35.00474313787289,135.76987158035274,3499.5,"Kyoto Kawaramachi Sta., Izakaya (Tavern), Tempura, Dining bar",Japanese
254,Tajimaya Don Kihote Kawaramachi Ten,3.02,https://tabelog.com/en/kyoto/A2601/A260202/26034656/,35.00578113767276,135.7690390459706,2499.5,"Kyoto Kawaramachi Sta., Shabu shabu (Japanese hotpot), Sukiyaki, Buffet style",Japanese
255,Tori Sei Kyototawasandoten,3.47,https://tabelog.com/en/kyoto/A2601/A260101/26028812/,34.987561076865425,135.7593493094396,2499.5,"Kyoto Sta., Izakaya (Tavern), Yakitori (Grilled chicken skewers), Cafeteria",Cafe
256,Kazamidori Karasumen Rokkaku Ten,3.05,https://tabelog.com/en/kyoto/A2601/A260202/26017489/,35.00745758497794,135.7607888293717,3499.5,"Karasuma Oike Sta., Izakaya (Tavern), Yakitori (Grilled chicken skewers), Creative",Japanese
257,Sumika Hon Ten,3.48,https://tabelog.com/en/kyoto/A2601/A260201/26004942/,35.00470359917136,135.77018178719717,3499.5,"Kyoto Kawaramachi Sta., Izakaya (Tavern), Creative, Japanese Cuisine",Japanese
258,Kappou Yoshizen,3.56,https://tabelog.com/en/kyoto/A2601/A260301/26000269/,35.001455216891856,135.77929368001648,17499.5,"Gion Shijo Sta., Japanese Cuisine",Japanese
259,Kushi Ikuzou Kyoto Higashi Mukaibi,3.01,https://tabelog.com/en/kyoto/A2607/A260702/26030076/,34.95217573788571,135.70525347986708,3499.5,"Higashi Muko Sta., Izakaya (Tavern), Yakitori (Grilled chicken skewers), Kushi-age (Deep-fried skewers)",Japanese
260,Figueras,3.33,https://tabelog.com/en/kyoto/A2601/A260301/26000582/,35.00471336758421,135.7728860066067,5499.5,"Gion Shijo Sta., Spain, Baru (Spanish style bar), Izakaya (Tavern)",Spanish
261,Tempura Kappo Yano,3.01,https://tabelog.com/en/kyoto/A2601/A260101/26041567/,34.992222537878064,135.7611225802324,12499.5,"Gojo Sta., Tempura, Japanese Cuisine",Japanese
262,Teramachi Yoshikura,3.44,https://tabelog.com/en/kyoto/A2601/A260302/26005368/,35.028762637856914,135.7676678805965,6999.5,"Demachiyanagi Sta., Japanese Cuisine, Izakaya (Tavern), Seafood",Japanese
263,Eldor,3.14,https://tabelog.com/en/kyoto/A2601/A260503/26003669/,35.05144843784452,135.77389518082168,4499.5,"Matsugasaki Sta., Yakiniku (BBQ Beef), Horumon (BBQ Offel), Korean",Korean
264,Raiz,3.56,https://tabelog.com/en/kyoto/A2601/A260503/26040257/,35.044526460923095,135.74849731012912,12499.5,"Kitaoji Sta., Spain, Innovative",Spanish
265,Apollo+,3.45,https://tabelog.com/en/kyoto/A2601/A260202/26002988/,35.00855834619215,135.7634005062356,5499.5,"Karasuma Oike Sta., Izakaya (Tavern), Seafood, Steak",Japanese
266,Wa French &BAR Le HUBLOT,3.29,https://tabelog.com/en/kyoto/A2601/A260201/26039120/,35.00318127072503,135.7706812602512,5499.5,"Gion Shijo Sta., French, Bar, Hamburger steak",French
267,Il Chianti Kyoto Shijo Muromachi Ten,3.09,https://tabelog.com/en/kyoto/A2601/A260201/26031019/,35.000677703384774,135.75785660727277,3499.5,"Shijo Sta., Italian, Izakaya (Tavern), Dining bar",Italian
268,node,3.40,https://tabelog.com/en/kyoto/A2601/A260201/26033017/,35.00475971632439,135.75496860362227,3499.5,"Shijo Sta., Cafe, Bar, Italian",Italian
269,Rakuda Ya,3.27,https://tabelog.com/en/kyoto/A2601/A260401/26012710/,35.002433637861614,135.7298158803575,3499.5,"Saiin Sta., Genghis Khan (BBQ Rum), Motsu Nabe (Offel Hot Pot), Izakaya (Tavern)",Japanese
270,Gyu Kouno,3.29,https://tabelog.com/en/kyoto/A2601/A260302/26032961/,35.01742543786591,135.77317678047854,4499.5,"Jingu Marutamachi Sta., Yakiniku (BBQ Beef), Korean, Izakaya (Tavern)",Korean
271,Kyoryori Kiyojirou,3.57,https://tabelog.com/en/kyoto/A2601/A260203/26017844/,35.00904534695852,135.75370434463397,12499.5,"Nijojo Mae Sta., Japanese Cuisine",Japanese
272,Creative Yoru no Tobari,3.12,https://tabelog.com/en/kyoto/A2601/A260201/26041696/,35.0074083015277,135.7697039245764,4499.5,"Sanjo Sta., Izakaya (Tavern), Seafood, Creative",Japanese
273,Highball Bar Kyoto Karasuma 1923,3.29,https://tabelog.com/en/kyoto/A2601/A260202/26029875/,35.00487893577015,135.75872023100538,2499.5,"Karasuma Sta., Bar, Baru (Spanish style bar), Izakaya (Tavern)",Spanish
274,Pizzeria Bar Le Napoli Kyoto Nishiki,3.44,https://tabelog.com/en/kyoto/A2601/A260203/26026734/,35.00505258808409,135.7621424387961,2499.5,"Karasuma Sta., Italian, Pizza, Izakaya (Tavern)",Italian
275,Sakaba Lemon,3.05,https://tabelog.com/en/kyoto/A2601/A260201/26031115/,35.00447443787176,135.76574908035295,3499.5,"Kyoto Kawaramachi Sta., Izakaya (Tavern), Italian, Baru (Spanish style bar)",Italian
276,Gion Tsubaki,3.42,https://tabelog.com/en/kyoto/A2601/A260301/26027450/,35.00296733787591,135.77578708033064,24999.5,"Gion Shijo Sta., Japanese Cuisine, Seafood, Meat dishes",Japanese
277,Fushimi 89 Chome Shokudo,3.30,https://tabelog.com/en/kyoto/A2601/A260601/26027026/,34.93249963791581,135.76055547962957,2499.5,"Fushimi Momoyama Sta., Izakaya (Tavern), Yakitori (Grilled chicken skewers), Nihonshu (Japanese sake)",Japanese
278,Itogen,3.26,https://tabelog.com/en/kyoto/A2601/A260501/26001518/,35.02649560216838,135.7385582027857,6999.5,"Kitano Hakubaicho Sta., Japanese Cuisine, Sushi, Fugu (Pufferfish)",Japanese
279,MATT RESTAURANT2.0,3.09,https://tabelog.com/en/kyoto/A2601/A260201/26041042/,34.99775498741734,135.7594007802632,12499.5,"Gojo Sta., Wine bar, Innovative, Italian",Italian
280,Izutsu ya Sentochoten,3.12,https://tabelog.com/en/kyoto/A2601/A260301/26040481/,35.00710132902919,135.77116034186932,12499.5,"Sanjo Sta., Sukiyaki, Meat dishes",Japanese
281,Gion Wakou RIN,3.01,https://tabelog.com/en/kyoto/A2601/A260301/26029496/,35.005889237874044,135.7757592803602,6999.5,"Sanjo Keihan Sta., Izakaya (Tavern), Meat dishes",Japanese
282,Shusai Isami,3.10,https://tabelog.com/en/kyoto/A2601/A260301/26031884/,35.00705695392125,135.7699158675957,4499.5,"Sanjo Sta., Izakaya (Tavern), Seafood, Suppon (Soft-shell turtle)",Japanese
283,All Day Dining OPEN,3.08,https://tabelog.com/en/kyoto/A2601/A260301/26039917/,34.995139612334306,135.76962032972511,4499.5,"Kiyomizu Gojo Sta., Yoshoku (Japanese style western cuisine), Meat dishes, Cafe",Cafe
284,京Apollo 新町,3.19,https://tabelog.com/en/kyoto/A2601/A260202/26033333/,35.0083580378664,135.75668878039852,4499.5,"Karasuma Oike Sta., Izakaya (Tavern), Seafood, Steak",Japanese
285,Kifune Kiraku,3.50,https://tabelog.com/en/kyoto/A2601/A260502/26000769/,35.12144243779672,135.76341228153606,12499.5,"Kurama Sta., Japanese Cuisine, Seafood",Japanese
286,Sumibi Club Yuu,3.05,https://tabelog.com/en/kyoto/A2601/A260301/26039327/,35.00453611714046,135.77599518753948,5499.5,"Gion Shijo Sta., Izakaya (Tavern), Seafood, Yakitori (Grilled chicken skewers)",Japanese
287,Okonomiyaki Teppanyaki Hinoki,3.25,https://tabelog.com/en/kyoto/A2601/A260201/26029453/,35.00475310641562,135.75817750409445,2499.5,"Karasuma Sta., Izakaya (Tavern), Teppanyaki, Okonomiyaki (Japanese savory pancake)",Japanese
288,Miyagawacho Tensho,-,https://tabelog.com/en/kyoto/A2601/A260301/26041553/,34.99990983787633,135.77100028030313,24999.5,"Gion Shijo Sta., Tempura",Japanese
289,Pub & Grill 7 TAPS TAVERN Kyoto Eki,3.14,https://tabelog.com/en/kyoto/A2601/A260101/26042306/,34.98601408480292,135.76088124431388,5499.5,"Kyoto Sta., Italian, Baru (Spanish style bar), Beer hall",Italian
290,Kuroge Wagyu Ittogai Yakiniku to Takitate Donabe Gohan Ichiba Koji Karasuma Ten,3.39,https://tabelog.com/en/kyoto/A2601/A260201/26003035/,35.00410043260425,135.7601329273026,4499.5,"Karasuma Sta., Yakiniku (BBQ Beef), Horumon (BBQ Offel), Izakaya (Tavern)",Japanese
291,Honkaku Sumibi Yaki Unagi En Kyoto Sanjo Ten,3.27,https://tabelog.com/en/kyoto/A2601/A260301/26039633/,35.00941565021503,135.7733332529613,3499.5,"Sanjo Keihan Sta., Unagi (Eel), Japanese Cuisine, Bento (Lunch box)",Japanese
292,Honmaguro to Sosaku Washoku Ginjo Kuraudo Marutacho Ten,3.54,https://tabelog.com/en/kyoto/A2601/A260202/26032229/,35.01493479354445,135.75808537629553,4499.5,"Marutamachi Sta., Izakaya (Tavern), Seafood, Nihonshu (Japanese sake)",Japanese
293,Sumiyaki Unafuji Daimaru Kyoto Bettei,3.52,https://tabelog.com/en/kyoto/A2601/A260201/26039719/,35.00391213787097,135.76214168034974,6999.5,"Karasuma Sta., Unagi (Eel), Seafood",Mixed
294,Yakinikuya Kei,3.01,https://tabelog.com/en/kyoto/A2601/A260604/26040280/,34.977746890536906,135.73417237474908,4499.5,"Nishioji Sta., Yakiniku (BBQ Beef), Korean, Izakaya (Tavern)",Korean
295,Warayaki to Mizutaki Aoi,3.40,https://tabelog.com/en/kyoto/A2601/A260301/26034606/,35.005254391188046,135.77118917817398,6999.5,"Gion Shijo Sta., Izakaya (Tavern), Japanese Cuisine, Regional Cuisine",Japanese
296,il pozzo,3.34,https://tabelog.com/en/kyoto/A2601/A260202/26013012/,35.00792703750665,135.75521941443435,3499.5,"Karasuma Oike Sta., Italian, Pasta, Pizza",Italian
297,Kiyamachi Sakaba Uomasu,3.07,https://tabelog.com/en/kyoto/A2601/A260301/26033141/,35.00743774830966,135.77001806379806,3499.5,"Sanjo Sta., Izakaya (Tavern), Seafood, Sushi",Japanese
298,kakure robata y gaburi,3.14,https://tabelog.com/en/kyoto/A2601/A260201/26033399/,35.00161097858855,135.76024358828678,5499.5,"Shijo Sta., Izakaya (Tavern), Seafood, Robatayaki",Japanese
299,Sumi Ginjo,3.29,https://tabelog.com/en/kyoto/A2601/A260203/26034203/,35.00771553786292,135.74441338040063,4499.5,"Nijo Sta., Izakaya (Tavern), Yakitori (Grilled chicken skewers), Seafood",Japanese
300,Genka Sakaba Gyutan Keisuke Shijo Karasumaru,3.02,https://tabelog.com/en/kyoto/A2601/A260201/26034877/,35.00467955008746,135.7608633955292,3499.5,"Karasuma Sta., Izakaya (Tavern), Seafood, Japanese Cuisine",Japanese
301,Ishiya Uzumasa Ten,3.15,https://tabelog.com/en/kyoto/A2601/A260402/26016798/,35.02107593784057,135.70091898056606,3499.5,"Tokiwa Sta., Yakiniku (BBQ Beef), Horumon (BBQ Offel)",Japanese
302,Rokudenya Sentocho,3.46,https://tabelog.com/en/kyoto/A2601/A260201/26003016/,35.00602163787245,135.77101588036484,4499.5,"Gion Shijo Sta., Suppon (Soft-shell turtle), Izakaya (Tavern), Dandan noodles",Japanese
303,Kyoto Arashiyama Goseiyu no Yado Ranzan,3.20,https://tabelog.com/en/kyoto/A2601/A260403/26007651/,35.01396676955441,135.6744512555591,6999.5,"Arashiyama Sta., Ryokan (Traditional Japanese inn)",Japanese
304,Kushi no Bo Kyotoekiten,3.09,https://tabelog.com/en/kyoto/A2601/A260101/26002257/,34.986079542859954,135.75787200034253,5499.5,"Kyoto Sta., Kushi-age (Deep-fried skewers)",Mixed
305,Tairiki Tei,3.41,https://tabelog.com/en/kyoto/A2601/A260301/26037316/,35.012144286536355,135.79133370857892,12499.5,"Keage Sta., Udon (Wheat noodles), Steak, Cafe",Cafe
306,Steak House Pondo Kyotohonten,3.17,https://tabelog.com/en/kyoto/A2601/A260202/26022499/,35.01495273786297,135.75907378046344,4499.5,"Marutamachi Sta., Steak, Hamburger steak, Vegetable dishes",American
307,Gion Ishiya,3.31,https://tabelog.com/en/kyoto/A2601/A260301/26027616/,35.00322073787612,135.77694348033242,4499.5,"Gion Shijo Sta., Yakiniku (BBQ Beef), Japanese Cuisine, Izakaya (Tavern)",Japanese
308,Gaya Gaya,3.10,https://tabelog.com/en/kyoto/A2601/A260201/26001576/,35.00717416451371,135.76996780232992,3499.5,"Sanjo Sta., Izakaya (Tavern), Bar, Dining bar",Japanese
309,Kyoto Umakamon Kyoto Kawaramachi Ten,3.02,https://tabelog.com/en/kyoto/A2601/A260202/26040784/,35.009103962864,135.7702404686118,3499.5,"Sanjo Sta., Izakaya (Tavern), Seafood, Hot Pot",Japanese
310,Seafood Private rooms Izakaya Hitosaji,3.05,https://tabelog.com/en/kyoto/A2601/A260301/26038940/,35.0076651378711,135.77003738038215,3499.5,"Sanjo Sta., Izakaya (Tavern), Seafood",Japanese
311,Yuttari Aburi Gibier to Wine Tanzen,3.31,https://tabelog.com/en/kyoto/A2601/A260201/26019308/,35.004371149115784,135.7710053452185,6999.5,"Gion Shijo Sta., Wild game dishes, Pasta",Italian
312,Hinano Kyoto Shi Dobutsuen Ten,3.06,https://tabelog.com/en/kyoto/A2601/A260301/26026136/,35.01296275151628,135.78497899302076,2499.5,"Higashiyama Sta., Buffet style, Pork shabu shabu",Mixed
313,Ternura,3.41,https://tabelog.com/en/kyoto/A2601/A260201/26002320/,35.00407806168283,135.7673856593273,3499.5,"Kyoto Kawaramachi Sta., Spain, Baru (Spanish style bar), Izakaya (Tavern)",Spanish
314,CBA,-,https://tabelog.com/en/kyoto/A2601/A260201/26035442/,35.005499061385656,135.76970901205877,3499.5,"Kyoto Kawaramachi Sta., Izakaya (Tavern), Ramen, Dumplings",Japanese
315,Gihan Ebisudo Sanjo Ten,3.49,https://tabelog.com/en/kyoto/A2601/A260203/26016639/,35.0086665378643,135.7506963804058,2499.5,"Nijojo Mae Sta., Chinese, Izakaya (Tavern), Baru (Spanish style bar)",Spanish
316,Kyoya Kiyomizu Giwon Shinbashi,3.06,https://tabelog.com/en/kyoto/A2601/A260301/26028988/,35.00580608862378,135.77632900368863,5499.5,"Sanjo Keihan Sta., Izakaya (Tavern), Japanese Cuisine, Oden",Japanese
317,Restaurant Kaibotei,3.08,https://tabelog.com/en/kyoto/A2609/A260902/26015677/,35.47682680080629,135.3936188232993,1499.5,"Higashi Maizuru Sta., Seafood, Yoshoku (Japanese style western cuisine), Curry",Japanese
318,Fujiya,3.22,https://tabelog.com/en/kyoto/A2601/A260201/26001192/,35.00923644477828,135.7700163144614,12499.5,"Sanjo Sta., Japanese Cuisine, Sushi, Seafood",Japanese
319,Umai Dokoro Kyotentou,3.07,https://tabelog.com/en/kyoto/A2601/A260401/26034705/,35.00049593786294,135.73012178033773,3499.5,"Saiin Sta., Izakaya (Tavern), Pork shabu shabu, Seafood",Japanese
320,KAZUMA,3.21,https://tabelog.com/en/kyoto/A2601/A260201/26022734/,35.00657923299037,135.77024502892067,4499.5,"Sanjo Sta., Izakaya (Tavern), Seafood, Yakitori (Grilled chicken skewers)",Japanese
321,Pontocho Yakitori Torihara,3.03,https://tabelog.com/en/kyoto/A2601/A260202/26031504/,35.00764913101637,135.77095853151542,4499.5,"Sanjo Sta., Yakitori (Grilled chicken skewers), Izakaya (Tavern)",Japanese
322,Gion Nikutei Shin,3.56,https://tabelog.com/en/kyoto/A2601/A260301/26033192/,35.00496059136177,135.77448891765803,12499.5,"Gion Shijo Sta., Beef dishes, Japanese Cuisine, Steak",Japanese
323,Yakiniku Ishi Ya Demachi Honten,3.06,https://tabelog.com/en/kyoto/A2601/A260302/26004357/,35.02867282620199,135.77357509094472,3499.5,"Demachiyanagi Sta., Yakiniku (BBQ Beef), Horumon (BBQ Offel), Izakaya (Tavern)",Japanese
324,Okonomiyaki Kyo Chabana Kyoto Minami Shincho Ten,3.14,https://tabelog.com/en/kyoto/A2601/A260101/26013305/,34.98908170577757,135.75695777137744,2499.5,"Kyoto Sta., Okonomiyaki (Japanese savory pancake), Izakaya (Tavern), Teppanyaki",Japanese
325,Yakiniku Korean cold noodles Yuchan. Fukuchiyama Ten,3.19,https://tabelog.com/en/kyoto/A2608/A260802/26033344/,35.29133733748388,135.11989848370325,4499.5,"Fukuchiyama Sta., Yakiniku (BBQ Beef), Korean cold noodles",Korean
326,Ishiyaki Nama Pasta Kuranosuke,3.43,https://tabelog.com/en/kyoto/A2601/A260401/26021229/,34.97448693786796,135.6940204801003,2499.5,"Katsura Sta., Pasta, Italian, Ramen",Italian
327,Sakana to Yakitori to Kappo to Totototo,3.53,https://tabelog.com/en/kyoto/A2601/A260401/26040130/,35.00292921732727,135.73109483728228,12499.5,"Saiin Sta., Izakaya (Tavern), Sushi, Seafood",Japanese
328,Hakkaisan Kyoto Ekimae Ten,3.20,https://tabelog.com/en/kyoto/A2601/A260101/26041574/,34.983780069217474,135.75802237150396,3499.5,"Kyoto Sta., Izakaya (Tavern), Seafood, Japanese Cuisine",Japanese
329,Kyo no Musubime,3.26,https://tabelog.com/en/kyoto/A2601/A260201/26025931/,35.00074133787526,135.76930828031274,4499.5,"Kyoto Kawaramachi Sta., Izakaya (Tavern), Japanese Cuisine, Dining bar",Japanese
330,Wabiya Koreki Do Gion Hanami Koji Honten,3.66,https://tabelog.com/en/kyoto/A2601/A260301/26000850/,35.00188425941071,135.7748134767878,12499.5,"Gion Shijo Sta., Yakitori (Grilled chicken skewers), Chicken dishes, Oyako-don (Chicken and egg bowl)",Japanese
331,Washoku Daifuku Tei,3.00,https://tabelog.com/en/kyoto/A2601/A260301/26040042/,35.00459563787474,135.7753902803474,12499.5,"Gion Shijo Sta., Japanese Cuisine",Japanese
332,Bar agiyao,3.59,https://tabelog.com/en/kyoto/A2601/A260201/26023262/,34.99659148449678,135.76116579603206,8999.5,"Gojo Sta., Baru (Spanish style bar), Seafood, Seafood",Spanish
333,Osake to Gohan to Taka,3.12,https://tabelog.com/en/kyoto/A2601/A260201/26041590/,35.004707661670004,135.76833218350487,5499.5,"Kyoto Kawaramachi Sta., Izakaya (Tavern), Seafood",Japanese
334,Sushi Tamahime KYOTO,3.25,https://tabelog.com/en/kyoto/A2601/A260101/26041386/,34.98595682814348,135.75877986145017,6999.5,"Kyoto Sta., Sushi",Japanese
335,Premium Pon Gion Ten,3.04,https://tabelog.com/en/kyoto/A2601/A260301/26029417/,35.00292166354188,135.77567752393148,12499.5,"Gion Shijo Sta., Steak, Teppanyaki, Wine bar",Japanese
336,Pontocho Tanrakuya Toriume,3.09,https://tabelog.com/en/kyoto/A2601/A260201/26020270/,35.00767274401194,135.77121100945996,5499.5,"Sanjo Sta., Yakitori (Grilled chicken skewers), Izakaya (Tavern), Nihonshu (Japanese sake)",Japanese
337,Teppanyaki Loin,3.26,https://tabelog.com/en/kyoto/A2601/A260101/26006063/,34.98745424340361,135.75790942048354,12499.5,"Kyoto Sta., Teppanyaki, Steak, Seafood",Japanese
338,Koji Happy Hanten Kyoto Poruta Ten,3.23,https://tabelog.com/en/kyoto/A2601/A260101/26038125/,34.98695713788037,135.75783268018156,1499.5,"Kyoto Sta., Chinese, Dumplings, Sichuan Cuisine",Chinese
339,PIZZA SALVATORE CUOMO & GRILL Kyoto,3.31,https://tabelog.com/en/kyoto/A2601/A260201/26006433/,35.00910285151759,135.7702201925691,4499.5,"Sanjo Sta., Italian, Pasta, Izakaya (Tavern)",Italian
340,Kyoto Kara-age Senmonten Kai,3.20,https://tabelog.com/en/kyoto/A2608/A260801/26035563/,35.01612893780585,135.5820609805994,2499.5,"Kameoka Sta., Kara-age (Deep-fried chicken), Izakaya (Tavern), Bento (Lunch box)",Japanese
341,Gyuso Marunaka Otokoyama Ten,3.35,https://tabelog.com/en/kyoto/A2607/A260702/26014750/,34.85430063794405,135.69324487888684,3499.5,"Kuzuha Sta., Yakiniku (BBQ Beef)",Japanese
342,Taro,3.17,https://tabelog.com/en/kyoto/A2601/A260202/26008013/,35.024246783794844,135.75411861032737,3499.5,"Imadegawa Sta., Japanese Cuisine, Seafood, Izakaya (Tavern)",Japanese
343,Teppan to Nikomi Donpisha,3.42,https://tabelog.com/en/kyoto/A2601/A260201/26039329/,35.002876160139984,135.76248195525048,4499.5,"Karasuma Sta., Izakaya (Tavern), Teppanyaki",Japanese
344,Tenpu Tempura to Ate to Wine Shijo Karasuma Ten,3.35,https://tabelog.com/en/kyoto/A2601/A260201/26037928/,35.00490423786868,135.75692318036346,3499.5,"Karasuma Sta., Izakaya (Tavern), Tempura, Dining bar",Japanese
345,Restaurant Zen,3.13,https://tabelog.com/en/kyoto/A2601/A260401/26017258/,34.964462642503825,135.67573370608977,5499.5,"Rakusaiguchi Sta., Cafeteria, Yoshoku (Japanese style western cuisine), Deep-fried foods",Cafe
346,kogamo,3.17,https://tabelog.com/en/kyoto/A2601/A260201/26025700/,35.00851068645323,135.7698663603303,5499.5,"Sanjo Sta., Horse meat dishes, Japanese Cuisine, Izakaya (Tavern)",Japanese
347,Kyoto Suehiro Gari,3.38,https://tabelog.com/en/kyoto/A2601/A260202/26034037/,35.00955040627072,135.76019267141413,5499.5,"Karasuma Oike Sta., Yakitori (Grilled chicken skewers), Chicken dishes",Japanese
348,Sosaku Kushikatsu Narinari,3.23,https://tabelog.com/en/kyoto/A2601/A260101/26037464/,34.98635403787948,135.75389388017825,6999.5,"Kyoto Sta., Kushi-age (Deep-fried skewers), Tonkatsu (Pork cutlet), Japanese Cuisine",Japanese
349,Gi Han Gyoza,3.42,https://tabelog.com/en/kyoto/A2601/A260202/26037415/,35.00917193786794,135.7631598804022,2499.5,"Karasuma Oike Sta., Dumplings, Izakaya (Tavern), Baru (Spanish style bar)",Spanish
350,Kyoya Kiyomizu Nishikofuyacho,3.23,https://tabelog.com/en/kyoto/A2601/A260201/26039036/,35.005422326673575,135.7653435448101,3499.5,"Kyoto Kawaramachi Sta., Izakaya (Tavern), Japanese Cuisine, Hot Pot",Japanese
351,Izakaya Maruya Shijo Kiyamachi Ten,3.06,https://tabelog.com/en/kyoto/A2601/A260201/26023479/,35.00416746472967,135.77063071683386,2499.5,"Gion Shijo Sta., Izakaya (Tavern), Japanese Cuisine, Hot Pot",Japanese
352,Raicho Jinja,3.16,https://tabelog.com/en/kyoto/A2601/A260101/26038202/,34.9894018179504,135.76533983828688,3499.5,"Shichijo Sta., Mexican, Dining bar",Bar
353,Matakichi,3.23,https://tabelog.com/en/kyoto/A2601/A260301/26037582/,35.001563937876334,135.77428988031755,12499.5,"Gion Shijo Sta., Japanese Cuisine, Shaved ice (snow cone)",Japanese
354,Osake to Oryori Kiharu,3.05,https://tabelog.com/en/kyoto/A2601/A260301/26040281/,35.004795646696806,135.77664680159592,6999.5,"Gion Shijo Sta., Izakaya (Tavern), Japanese Cuisine, Seafood",Japanese
355,KORAN,3.30,https://tabelog.com/en/kyoto/A2601/A260401/26018066/,35.00350093786248,135.7346609803649,4499.5,"Sai Sta., Korean, Yakiniku (BBQ Beef), Izakaya (Tavern)",Korean
356,Monaka Do,3.28,https://tabelog.com/en/kyoto/A2601/A260201/26013633/,35.00462228831788,135.7699110946225,3499.5,"Kyoto Kawaramachi Sta., Izakaya (Tavern), Creative, Shochu (Japanese spirits)",Japanese
357,Mimaderi,3.31,https://tabelog.com/en/kyoto/A2601/A260202/26006651/,35.00992566480719,135.7618035670297,3499.5,"Karasuma Oike Sta., Kushiyaki, Izakaya (Tavern), Japanese Cuisine",Japanese
358,Kyoto Kushidokoro Azumaya,3.06,https://tabelog.com/en/kyoto/A2601/A260201/26017694/,35.007207737871575,135.77059928037713,2499.5,"Sanjo Sta., Yakitori (Grilled chicken skewers), Izakaya (Tavern), Kushi-age (Deep-fried skewers)",Japanese
359,koubegyuuteppanyakigionnoichi,3.01,https://tabelog.com/en/kyoto/A2601/A260301/26042157/,35.00266755797454,135.7745125625981,12499.5,"Gion Shijo Sta., Steak, Teppanyaki",Japanese
360,Gyokou Chokusou Ryoushi Goya Kyotoabantiten,3.08,https://tabelog.com/en/kyoto/A2601/A260101/26041511/,34.98358477453204,135.76052224012568,2499.5,"Kyoto Sta., Izakaya (Tavern), Seafood, Kaisen-don (Seafood bowl)",Japanese
361,Reggae no Izakaya Rasta,3.06,https://tabelog.com/en/kyoto/A2601/A260301/26000633/,35.007205542434164,135.76953200374535,2499.5,"Sanjo Sta., Izakaya (Tavern), Ramen, Asian Cuisine, Ethnic Cuisine",Japanese
362,CRAFT BEER&KYOTO ITALIAN 100K,3.33,https://tabelog.com/en/kyoto/A2601/A260101/26040089/,34.989361466013605,135.76084715770585,2499.5,"Kyoto Sta., Italian, Baru (Spanish style bar), Beer hall",Italian
363,Kyono Tamaya,3.09,https://tabelog.com/en/kyoto/A2601/A260202/26023252/,35.008666820354,135.75622443054692,6999.5,"Karasuma Oike Sta., Japanese Cuisine, Izakaya (Tavern)",Japanese
364,koshitsuyakitoridashigyouzatoriryouritabenomihoudaitorinotoriko Kyoto Kawaramachi Ten,3.01,https://tabelog.com/en/kyoto/A2601/A260301/26042442/,35.007377742011904,135.76929007146498,3499.5,"Sanjo Sta., Izakaya (Tavern), Chicken dishes",Japanese
365,Gibier no Nabariya,3.35,https://tabelog.com/en/kyoto/A2601/A260201/26037215/,35.00583423901978,135.76280900013288,4499.5,"Karasuma Sta., Wild game dishes, Baru (Spanish style bar)",Spanish
366,honkakuyakinikuyakisuki,3.05,https://tabelog.com/en/kyoto/A2601/A260401/26042272/,35.003330247002324,135.72888833540128,4499.5,"Saiin Sta., Yakiniku (BBQ Beef), Horumon (BBQ Offel), Korean",Korean
367,Sandaime Torimero Shijo Karasuma Ten,3.03,https://tabelog.com/en/kyoto/A2601/A260201/26029065/,35.00395040236229,135.7574828765189,2499.5,"Shijo Sta., Yakitori (Grilled chicken skewers), Izakaya (Tavern), Motsu Nabe (Offel Hot Pot)",Japanese
368,Sandaime Torimero Fushimi Momoyama Ten,3.03,https://tabelog.com/en/kyoto/A2601/A260601/26030425/,34.9331675106293,135.76279791630108,2499.5,"Fushimi Momoyama Sta., Yakitori (Grilled chicken skewers), Izakaya (Tavern), Motsu Nabe (Offel Hot Pot)",Japanese
369,Koryouri Takaya,3.63,https://tabelog.com/en/kyoto/A2601/A260101/26027640/,34.98911561111109,135.7581068410529,12499.5,"Kyoto Sta., Japanese Cuisine",Japanese
370,Imo Matsu Kiyamachi Ten,3.17,https://tabelog.com/en/kyoto/A2601/A260301/26003950/,35.00752302812454,135.7706568957056,3499.5,"Sanjo Sta., Izakaya (Tavern), Seafood, Hot Pot",Japanese
371,Korean Yatai Ryori to Nakkopuse no Omise Namu Sain Ten,3.23,https://tabelog.com/en/kyoto/A2601/A260401/26035357/,35.00302243786178,135.73152798036222,2499.5,"Saiin Sta., Korean, Izakaya (Tavern)",Korean
372,Retro Sakaba Center Fry,3.05,https://tabelog.com/en/kyoto/A2601/A260202/26038312/,35.00926023787002,135.7698614803984,3499.5,"Kyoto Shiyakusho Mae Sta., Izakaya (Tavern), Tonkatsu (Pork cutlet), Oden",Japanese
373,Kiwami saredo French Toast Cafe,3.32,https://tabelog.com/en/kyoto/A2601/A260101/26037635/,34.98934263787788,135.75478328020776,,"Kyoto Sta., Cafe, Sweets",Cafe
374,setsu,3.32,https://tabelog.com/en/kyoto/A2601/A260202/26039425/,35.006500317856265,135.76425013435167,4499.5,"Karasuma Sta., Izakaya (Tavern), Oden, Kamameshi",Japanese
375,Kyoto Gion Unagi Yondaime Kikukawa,3.36,https://tabelog.com/en/kyoto/A2601/A260201/26039727/,35.00572009867327,135.7734049177217,5499.5,"Gion Shijo Sta., Unagi (Eel), Japanese Cuisine",Japanese
376,Yakinikuya Taisho,3.01,https://tabelog.com/en/kyoto/A2601/A260201/26031384/,35.006027077400894,135.77067862944358,4499.5,"Gion Shijo Sta., Yakiniku (BBQ Beef)",Japanese
377,YOSHIYA,3.36,https://tabelog.com/en/kyoto/A2601/A260201/26029491/,35.01357223530601,135.762310365923,17499.5,"Karasuma Oike Sta., Teppanyaki, Steak",Japanese
378,Yakitori no Waraiya,3.33,https://tabelog.com/en/kyoto/A2601/A260201/26004453/,35.00280926569055,135.76493453242193,4499.5,"Kyoto Kawaramachi Sta., Izakaya (Tavern), Yakitori (Grilled chicken skewers), Vegetable dishes",Japanese
379,T's cafe Kyoto,3.07,https://tabelog.com/en/kyoto/A2601/A260203/26037038/,35.003482037864906,135.74227138035937,3499.5,"Shijo Omiya Sta., Cafe, Korean, Izakaya (Tavern)",Cafe
380,saredo Kafe & Dining Kyoto Ten,3.45,https://tabelog.com/en/kyoto/A2601/A260101/26024067/,34.9890664307592,135.75702221117345,3499.5,"Kyoto Sta., Cafe, Pizza, Dining bar",Cafe
381,KYOTO GATTEN,3.18,https://tabelog.com/en/kyoto/A2601/A260201/26029623/,35.004061137873656,135.77088918034514,3499.5,"Gion Shijo Sta., Izakaya (Tavern), Tempura, Sushi",Japanese
382,SOUL&FOOD Mookie,3.17,https://tabelog.com/en/kyoto/A2601/A260201/26037211/,35.00226934619567,135.7695905455497,2499.5,"Kyoto Kawaramachi Sta., Cafe, Hamburger, American",Cafe
383,Osusume Ya Kyoto Kawaramachi Ten,3.05,https://tabelog.com/en/kyoto/A2601/A260301/26040388/,35.007377742011904,135.76929007146498,2499.5,"Sanjo Sta., Izakaya (Tavern), Hot Pot, Buffet style",Japanese
384,Tempura to Wine Kojima Kyobashi Ten,3.22,https://tabelog.com/en/kyoto/A2601/A260101/26037350/,34.989374337877855,135.75477608020807,3499.5,"Kyoto Sta., Tempura, Izakaya (Tavern), Baru (Spanish style bar)",Spanish
385,Nostalgia,3.35,https://tabelog.com/en/kyoto/A2601/A260202/26001931/,35.01004328142474,135.768785546195,3499.5,"Kyoto Shiyakusho Mae Sta., Dining bar, Italian, Baru (Spanish style bar)",Italian
386,Minmin Sanjo Ohashi Ten,3.24,https://tabelog.com/en/kyoto/A2601/A260301/26002148/,35.008449037870975,135.77123458038923,2499.5,"Sanjo Sta., Chinese, Izakaya (Tavern), Dumplings",Chinese
387,Gion 245,3.66,https://tabelog.com/en/kyoto/A2601/A260301/26018705/,35.00630102334714,135.7756226506746,17499.5,"Sanjo Keihan Sta., Italian, French, Steak",Italian
388,Tachinomi Torizuki,3.42,https://tabelog.com/en/kyoto/A2601/A260201/26039075/,35.00178083787177,135.76042018032948,2499.5,"Shijo Sta., Stand Bar, Yakitori (Grilled chicken skewers)",Japanese
389,Aji no Mise Kyo wa Sai,3.16,https://tabelog.com/en/kyoto/A2601/A260301/26041020/,34.996226712141464,135.76926891996868,4499.5,"Kiyomizu Gojo Sta., Izakaya (Tavern), Italian, Yoshoku (Japanese style western cuisine)",Italian
390,Yuju Fudan,3.30,https://tabelog.com/en/kyoto/A2601/A260201/26041472/,35.00125098824585,135.7585920753527,3499.5,"Shijo Sta., Izakaya (Tavern), Seafood, Italian",Italian
391,ishiyaki isshan Kyoto Ekimae Ten,3.08,https://tabelog.com/en/kyoto/A2601/A260101/26000990/,34.988246737879464,135.75758108019474,3499.5,"Kyoto Sta., Izakaya (Tavern), Yakitori (Grilled chicken skewers), Yakiniku (BBQ Beef)",Japanese
392,C.STAND Kyoto Kawaramachi Ten,3.08,https://tabelog.com/en/kyoto/A2601/A260201/26041316/,35.00579267877262,135.7695248630847,3499.5,"Kyoto Kawaramachi Sta., Other",Mixed
393,Kagono Ya Kyotorisachipakuten,3.05,https://tabelog.com/en/kyoto/A2601/A260203/26035646/,34.9955923314034,135.7372260547778,3499.5,"Tambaguchi Sta., Shabu shabu (Japanese hotpot), Japanese Cuisine",Japanese
394,gionemon,3.05,https://tabelog.com/en/kyoto/A2601/A260202/26042019/,35.02018313175908,135.74279473787178,8999.5,"Nijo Sta., Sushi, Japanese Cuisine",Japanese
395,Kyotoen Mine,3.05,https://tabelog.com/en/kyoto/A2601/A260203/26041548/,35.00253986201403,135.7497160864939,3499.5,"Shijo Omiya Sta., Izakaya (Tavern), Hot Pot, Shabu shabu (Japanese hotpot)",Japanese
396,Sakaba Memory,3.20,https://tabelog.com/en/kyoto/A2601/A260201/26039935/,35.00473413787077,135.76320788035733,2499.5,"Karasuma Sta., Izakaya (Tavern), Seafood, Horumon (BBQ Offel)",Japanese
397,Hamburg Conel,3.46,https://tabelog.com/en/kyoto/A2601/A260201/26034922/,35.004222937873465,135.770629080347,3499.5,"Gion Shijo Sta., Hamburger steak, Italian, Bistro",Italian
398,robatatoodenkoronagirai Kyoto Ekimae Ten,-,https://tabelog.com/en/kyoto/A2601/A260101/26042617/,34.983780069217474,135.75802237150396,2499.5,"Kyoto Sta., Izakaya (Tavern), Oden, Robatayaki",Japanese
399,Spanish Shokudo La Farola,3.14,https://tabelog.com/en/kyoto/A2601/A260302/26040793/,35.01708213231595,135.77790696458064,3499.5,"Jingu Marutamachi Sta., Spain, Izakaya (Tavern), Baru (Spanish style bar)",Spanish
400,Gion Shinbashi Nakatani,3.37,https://tabelog.com/en/kyoto/A2601/A260301/26026513/,35.00599933787355,135.77441068036225,8999.5,"Gion Shijo Sta., Japanese Cuisine, Seafood",Japanese
401,Budo Ya Ethnic,3.25,https://tabelog.com/en/kyoto/A2601/A260201/26032611/,34.99844560291162,135.7670612233781,3499.5,"Kiyomizu Gojo Sta., Baru (Spanish style bar), Asian Cuisine, Ethnic Cuisine, Hot Pot",Spanish
402,Ebi Bar Kitchen origami,3.04,https://tabelog.com/en/kyoto/A2601/A260201/26031543/,35.00459673787305,135.77007518035114,3499.5,"Kyoto Kawaramachi Sta., Italian, Creative, Seafood",Italian
403,Casual Tempura Endo Kyoto Kawaramachi Garden Ten,3.16,https://tabelog.com/en/kyoto/A2601/A260201/26039443/,35.00377423888395,135.76930884692865,6999.5,"Kyoto Kawaramachi Sta., Tempura, Japanese Cuisine, Izakaya (Tavern)",Japanese
404,Genka Bistro Cheese Plus Kyotoekitawamae,3.27,https://tabelog.com/en/kyoto/A2601/A260101/26034582/,34.987434337880785,135.76012188018473,3499.5,"Kyoto Sta., Italian, French, Izakaya (Tavern)",Italian
405,Sosaku Private rooms Izakaya Sugiura Kyoto Eki Mae Shichijo Ten,3.11,https://tabelog.com/en/kyoto/A2601/A260101/26024844/,34.98943813788011,135.7619940802037,5499.5,"Shichijo Sta., Izakaya (Tavern), Seafood, Japanese Cuisine",Japanese
406,Sofudo Ushinohone,3.37,https://tabelog.com/en/kyoto/A2601/A260301/26029331/,35.00762274813695,135.7711410175747,6999.5,"Sanjo Sta., Izakaya (Tavern), Japanese Cuisine, Tofu dishes",Japanese
407,Tori Chuu,3.06,https://tabelog.com/en/kyoto/A2601/A260603/26029352/,34.98118275402149,135.80040591558458,4499.5,"Higashino Sta., Beer garden, BBQ, Izakaya (Tavern)",Japanese
408,Kodaiji Tantra,3.05,https://tabelog.com/en/kyoto/A2601/A260301/26040960/,35.00134272767698,135.77922230223507,17499.5,"Gion Shijo Sta., Japanese Cuisine, Tempura",Japanese
409,Tatsumi,3.03,https://tabelog.com/en/kyoto/A2601/A260401/26002866/,35.002938137861875,135.7316490803613,5499.5,"Saiin Sta., Japanese Cuisine, Sushi, Hot Pot",Japanese
410,Kihara,3.22,https://tabelog.com/en/kyoto/A2601/A260202/26014952/,35.01450040590638,135.75867756933607,4499.5,"Marutamachi Sta., Yakiniku (BBQ Beef), Horumon (BBQ Offel), Korean",Korean
411,tachiyaki niku nanashi,3.12,https://tabelog.com/en/kyoto/A2601/A260301/26041937/,35.00601813787234,135.77066598036507,4499.5,"Gion Shijo Sta., Yakiniku (BBQ Beef), Horumon (BBQ Offel)",Japanese
412,Fuku Kitaru,3.14,https://tabelog.com/en/kyoto/A2601/A260301/26039106/,35.00740997238212,135.76995390373872,2499.5,"Sanjo Sta., Izakaya (Tavern), Kushiyaki, Seafood",Japanese
413,Yakiniku Daisen,3.21,https://tabelog.com/en/kyoto/A2601/A260203/26002402/,35.011036508972154,135.73700591753766,5499.5,"Nijo Sta., Yakiniku (BBQ Beef)",Japanese
414,epice,3.46,https://tabelog.com/en/kyoto/A2601/A260302/26005078/,35.02862513785706,135.76776138059546,6999.5,"Demachiyanagi Sta., French, Restaurants",French
415,OTOMO KYOTO,3.08,https://tabelog.com/en/kyoto/A2601/A260501/26041132/,35.027855437847634,135.73662498060952,,"Kitano Hakubaicho Sta., Cafeteria",Cafe
416,Irori Yaki Vancouver,3.17,https://tabelog.com/en/kyoto/A2601/A260101/26041093/,34.98821952774262,135.75607177447282,5499.5,"Kyoto Sta., Robatayaki, Izakaya (Tavern), Seafood",Japanese
417,Kyoto Fushimi Gura Pontocho Minami An,3.22,https://tabelog.com/en/kyoto/A2601/A260201/26025332/,35.00493123787315,135.77104138035386,4499.5,"Gion Shijo Sta., Izakaya (Tavern), Japanese Cuisine, Nihonshu (Japanese sake)",Japanese
418,yakiniku dokoro hishiya,3.08,https://tabelog.com/en/kyoto/A2601/A260501/26041193/,35.029512994466664,135.74185494224452,4499.5,"Kitano Hakubaicho Sta., Yakiniku (BBQ Beef), Izakaya (Tavern), Horumon (BBQ Offel)",Japanese
419,Genka Sakaba Gyutan Keisuke Kyoto Ekimae Ten,3.03,https://tabelog.com/en/kyoto/A2601/A260101/26023755/,34.98740610612833,135.76007564514157,3499.5,"Kyoto Sta., Izakaya (Tavern), Gyutan (Beef tongue), Seafood",Japanese
420,Kyokaiseki Minokichi Takeshigerou Hotel Granvia Kyoto Ten,3.08,https://tabelog.com/en/kyoto/A2601/A260101/26035757/,34.985827237881395,135.75881118016946,17499.5,"Kyoto Sta., Japanese Cuisine, Unagi (Eel), Seafood",Japanese
421,Kuimono Ya Wan Sain Ekimae Ten,3.02,https://tabelog.com/en/kyoto/A2601/A260401/26019801/,35.00349889243367,135.73188585647046,3499.5,"Saiin Sta., Izakaya (Tavern), Japanese Cuisine, Seafood",Japanese
422,Brochette,3.40,https://tabelog.com/en/kyoto/A2601/A260202/26016935/,35.010382237866565,135.7612124804158,4499.5,"Karasuma Oike Sta., Baru (Spanish style bar), Italian, French",Italian
423,Tachinomi Zakiyama,3.32,https://tabelog.com/en/kyoto/A2601/A260201/26039945/,35.00259053787225,135.76353578033547,4499.5,"Karasuma Sta., Stand Bar, Izakaya (Tavern), Yoshoku (Japanese style western cuisine)",Japanese
424,Gion Sumibiyaki Kyo Asobi,3.18,https://tabelog.com/en/kyoto/A2601/A260301/26032233/,35.00550973787421,135.77553708035654,5499.5,"Gion Shijo Sta., Yakitori (Grilled chicken skewers), Hot Pot, Wine bar",Japanese
425,Sumibi Yaki Shubo Suishin,3.19,https://tabelog.com/en/kyoto/A2601/A260201/26024504/,34.9877466378806,135.76011588018793,3499.5,"Kyoto Sta., Izakaya (Tavern), Seafood, Yakitori (Grilled chicken skewers)",Japanese
426,Yakiniku Dokoro Kanae KANAE,3.29,https://tabelog.com/en/kyoto/A2601/A260601/26013631/,34.95293313790625,135.77128347982844,6999.5,"Fujinomori Sta., Yakiniku (BBQ Beef), Izakaya (Tavern), Shabu shabu (Japanese hotpot)",Japanese
427,Zoronpa,3.17,https://tabelog.com/en/kyoto/A2601/A260302/26006149/,35.02699814173615,135.76919473157955,3499.5,"Demachiyanagi Sta., Izakaya (Tavern), Okonomiyaki (Japanese savory pancake), Japanese Cuisine",Japanese
428,BENJAMIN STEAK HOUSE Kyoto,3.66,https://tabelog.com/en/kyoto/A2601/A260201/26031586/,35.004589837194224,135.76084812315037,17499.5,"Karasuma Sta., Steak, Dining bar, Seafood",Bar
429,DiningCafe＆Bar ADACHIYA,3.01,https://tabelog.com/en/kyoto/A2601/A260202/26040544/,35.00942393689659,135.77071319239772,3499.5,"Sanjo Sta., Dining bar",Bar
430,Kushiya Monogatari Ionmo-Ru Kyoto Gojo Ten,3.02,https://tabelog.com/en/kyoto/A2601/A260401/26016701/,34.997127637864004,135.72673618030603,2499.5,"Saiin Sta., Kushi-age (Deep-fried skewers), Izakaya (Tavern), Buffet style",Japanese
431,Korean Izakaya Hana,3.12,https://tabelog.com/en/kyoto/A2601/A260603/26040421/,34.99133305601856,135.81623941105377,3499.5,"Keihan Yamashina Sta., Izakaya (Tavern), Korean, Hot Pot",Korean
432,Tobei An,3.30,https://tabelog.com/en/kyoto/A2601/A260201/26030537/,35.00511993787119,135.76527408035977,6999.5,"Kyoto Kawaramachi Sta., Japanese Cuisine, Seafood",Japanese
433,Manzara Donguribashi,3.33,https://tabelog.com/en/kyoto/A2601/A260201/26000898/,35.002411609586524,135.77056579069736,5499.5,"Gion Shijo Sta., Izakaya (Tavern), Yakitori (Grilled chicken skewers), Kushiyaki",Japanese
434,bistro Chic,3.57,https://tabelog.com/en/kyoto/A2601/A260503/26030101/,35.04552247044199,135.74777498371682,12499.5,"Kitaoji Sta., French, Creative",French
435,Sohonke Mama Saikan Rikka,3.27,https://tabelog.com/en/kyoto/A2601/A260302/26034608/,35.029085937860025,135.77800008059293,1499.5,"Demachiyanagi Sta., Taiwan Cuisine, Chinese, Baru (Spanish style bar)",Spanish
436,Téori,3.08,https://tabelog.com/en/kyoto/A2601/A260202/26041785/,35.01004000641476,135.76946149495635,6999.5,"Kyoto Shiyakusho Mae Sta., Dining bar, Buffet style",Bar
437,BRON RONNERY,3.48,https://tabelog.com/en/kyoto/A2601/A260202/26005684/,35.01712343786414,135.76706068047977,12499.5,"Jingu Marutamachi Sta., French, Steak",French
438,kyoutoshijousakabashinsei,-,https://tabelog.com/en/kyoto/A2601/A260201/26042566/,35.002372920916926,135.76478817577805,4499.5,"Kyoto Kawaramachi Sta., Izakaya (Tavern), Chicken dishes",Japanese
439,Daniel's,3.45,https://tabelog.com/en/kyoto/A2601/A260202/26000929/,35.00492760657076,135.76243547576937,3499.5,"Karasuma Sta., Italian, Pasta, Pizza",Italian
440,Sushi Nakamura,3.07,https://tabelog.com/en/kyoto/A2601/A260301/26028432/,35.00529093787392,135.77418528035528,24999.5,"Gion Shijo Sta., Sushi, Japanese Cuisine, Seafood",Japanese
441,Semaul Shokudo Kawaramachi Ten,3.29,https://tabelog.com/en/kyoto/A2601/A260201/26037317/,35.00754363787042,135.7676678803826,2499.5,"Kyoto Shiyakusho Mae Sta., Korean, Yakiniku (BBQ Beef), Izakaya (Tavern)",Korean
442,Pontocho Suzu,3.05,https://tabelog.com/en/kyoto/A2601/A260301/26041690/,35.00753600979377,135.77093740059985,4499.5,"Sanjo Sta., Izakaya (Tavern), Motsu Nabe (Offel Hot Pot), Shabu shabu (Japanese hotpot)",Japanese
443,Mescita Pane e Vino,3.59,https://tabelog.com/en/kyoto/A2601/A260202/26025955/,35.00485585386478,135.757070369089,12499.5,"Karasuma Sta., Italian, Steak, Dining bar",Italian
444,Suginoko Tei,3.21,https://tabelog.com/en/kyoto/A2601/A260301/26000242/,35.00880983914071,135.77089792754967,5499.5,"Sanjo Sta., Izakaya (Tavern), Shochu (Japanese spirits), Nihonshu (Japanese sake)",Japanese
445,Harebare,3.12,https://tabelog.com/en/kyoto/A2601/A260101/26037952/,34.98979263788066,135.76441548020557,3499.5,"Shichijo Sta., Izakaya (Tavern), Seafood, Creative",Japanese
446,Kyoto Ki Shin,3.52,https://tabelog.com/en/kyoto/A2601/A260501/26031180/,35.03961403783892,135.73271268073103,12499.5,"Kitano Hakubaicho Sta., French, Innovative, Creative",French
447,ERUTAN RESTAURANT BAR,3.47,https://tabelog.com/en/kyoto/A2601/A260201/26033315/,35.00251243787401,135.76890788033091,5499.5,"Kyoto Kawaramachi Sta., Italian, Dining bar, Pasta",Italian
448,Kyo o Ajiwau Private rooms Kukan Uguisu Kyoto Ekimae Ten,3.19,https://tabelog.com/en/kyoto/A2601/A260101/26028830/,34.98742003788103,135.7608541801841,3499.5,"Kyoto Sta., Izakaya (Tavern), Japanese Cuisine, Creative",Japanese
449,Yakiniku Marukyu,3.10,https://tabelog.com/en/kyoto/A2601/A260302/26025117/,35.04033553785538,135.7858398807011,6999.5,"Chayama Kyoto Geijutsudaigaku Sta., Yakiniku (BBQ Beef), Hot Pot, Horumon (BBQ Offel)",Japanese
450,Mikuri,3.65,https://tabelog.com/en/kyoto/A2601/A260202/26025729/,35.01308050762777,135.77091368997415,24999.5,"Kyoto Shiyakusho Mae Sta., Japanese Cuisine, Wine bar",Japanese
451,Matsusaka Ushi Yakiniku no GANSAN Sattomachi Bettei,3.15,https://tabelog.com/en/kyoto/A2601/A260201/26032602/,35.00744395271352,135.7711916887007,8999.5,"Sanjo Sta., Yakiniku (BBQ Beef), Italian, Korean",Italian
452,Miho Shijo Mibu Ten,3.30,https://tabelog.com/en/kyoto/A2601/A260203/26002163/,35.00341410564462,135.74357294531603,3499.5,"Shijo Omiya Sta., Izakaya (Tavern), Okinawa cuisine, Seafood",Japanese
453,Gochi Ya,3.16,https://tabelog.com/en/kyoto/A2601/A260101/26002315/,34.988440460958806,135.76127910868158,3499.5,"Kyoto Sta., Izakaya (Tavern), Creative, Yakiniku (BBQ Beef)",Japanese
454,Umai Sakana to Kyo Banzai Hanato,3.08,https://tabelog.com/en/kyoto/A2601/A260201/26036360/,35.00622382921773,135.7608555473018,3499.5,"Karasuma Sta., Seafood, Oyster, Izakaya (Tavern)",Japanese
455,The Mimasu Ya,3.37,https://tabelog.com/en/kyoto/A2601/A260301/26004114/,35.005716008474614,135.77118887916734,4499.5,"Gion Shijo Sta., Creative, Japanese Cuisine, Izakaya (Tavern)",Japanese
456,Sumikushi Manten Kyoto Ekimae Ten,3.16,https://tabelog.com/en/kyoto/A2601/A260101/26035913/,34.989127437879226,135.7586083802029,3499.5,"Kyoto Sta., Izakaya (Tavern), Creative, Yakitori (Grilled chicken skewers)",Japanese
457,TSUNKU,3.08,https://tabelog.com/en/kyoto/A2601/A260101/26036850/,34.989427765459446,135.7561325462013,4499.5,"Kyoto Sta., Yakiniku (BBQ Beef), Horumon (BBQ Offel), Izakaya (Tavern)",Japanese
458,Tajimaya Ionmo-Ru Kyoto Ten,3.10,https://tabelog.com/en/kyoto/A2601/A260101/26028128/,34.983798390121365,135.7574229759957,3499.5,"Kyoto Sta., Shabu shabu (Japanese hotpot), Sukiyaki, Buffet style",Japanese
459,BISTRO BAR A VIN  C,3.40,https://tabelog.com/en/kyoto/A2601/A260201/26020347/,35.00139568776187,135.75817821417272,4499.5,"Shijo Sta., Bistro, French, Wine bar",French
460,Jean-Georges at The Shinmonzen,3.16,https://tabelog.com/en/kyoto/A2601/A260301/26039077/,35.00628719931045,135.77461534742756,24999.5,"Sanjo Keihan Sta., French",French
461,Sumibi Yakiniku Oyake Sen,3.16,https://tabelog.com/en/kyoto/A2601/A260201/26038750/,35.00452243787078,135.76277428035547,5499.5,"Karasuma Sta., Yakiniku (BBQ Beef), Horumon (BBQ Offel)",Japanese
462,Kyoya Kiyomizu Yanagibaba Honke,3.42,https://tabelog.com/en/kyoto/A2601/A260201/26016279/,35.00234679745808,135.76392130452993,4499.5,"Karasuma Sta., Izakaya (Tavern), Japanese Cuisine, Shabu shabu (Japanese hotpot)",Japanese
463,All Day Dining Rajou,3.46,https://tabelog.com/en/kyoto/A2601/A260101/26000879/,34.986175148310814,135.7613139323108,5499.5,"Kyoto Sta., Restaurants, Cafe, Yoshoku (Japanese style western cuisine)",Cafe
464,Cafe & Dining HANA Mukou,3.32,https://tabelog.com/en/kyoto/A2607/A260702/26035719/,34.94837313788593,135.69837707983348,2499.5,"Higashi Muko Sta., Cafe, Italian, Izakaya (Tavern)",Italian
465,OLU BURGER KYOTO,3.46,https://tabelog.com/en/kyoto/A2601/A260202/26034909/,35.02143984240289,135.7689105666492,1499.5,"Jingu Marutamachi Sta., Hamburger, Cafe, Baru (Spanish style bar)",Spanish
466,kakuregasakabatomoshibisadokaisentosumibitoriyaki,-,https://tabelog.com/en/kyoto/A2601/A260201/26042556/,35.00318127072503,135.7706812602512,3499.5,"Gion Shijo Sta., Izakaya (Tavern), Seafood, Yakitori (Grilled chicken skewers)",Japanese
467,Arashiyama Kushibun,3.29,https://tabelog.com/en/kyoto/A2601/A260201/26014910/,35.0035746010211,135.75701321060498,3499.5,"Shijo Sta., Kushi-age (Deep-fried skewers), Izakaya (Tavern)",Japanese
468,Masoho Hanare,3.26,https://tabelog.com/en/kyoto/A2601/A260101/26020589/,34.987748261837936,135.75836299384582,3499.5,"Kyoto Sta., Izakaya (Tavern), Seafood, Robatayaki",Japanese
469,Yuba Ryori Kameya Honke,3.15,https://tabelog.com/en/kyoto/A2601/A260203/26015624/,35.00424823786658,135.74903698036235,5499.5,"Omiya Sta., Tofu dishes, Sukiyaki",Japanese
470,Karasuma DUE,3.43,https://tabelog.com/en/kyoto/A2601/A260202/26006320/,35.00883573791582,135.7589003116491,4499.5,"Karasuma Oike Sta., Baru (Spanish style bar), Italian, Izakaya (Tavern)",Italian
471,Sakaba Kurasu,3.08,https://tabelog.com/en/kyoto/A2601/A260604/26035678/,34.97995573787676,135.73257478012852,3499.5,"Nishioji Sta., Dining bar, Italian",Italian
472,Teppan Sakuwan,3.21,https://tabelog.com/en/kyoto/A2601/A260401/26030558/,35.00292115770453,135.73081263886772,4499.5,"Saiin Sta., Teppanyaki, Izakaya (Tavern), Steak",Japanese
473,Trattoria La Pace,3.46,https://tabelog.com/en/kyoto/A2601/A260202/26013067/,35.00525897593896,135.76334705147292,4499.5,"Karasuma Sta., Italian, Pasta, Pizza",Italian
474,KICHIRI Kyoto Sanjo,3.08,https://tabelog.com/en/kyoto/A2601/A260202/26036730/,35.00905333787024,135.7701114803961,3499.5,"Sanjo Sta., Izakaya (Tavern)",Japanese
475,KazeEda,3.38,https://tabelog.com/en/kyoto/A2601/A260201/26004096/,35.00606961073556,135.756944768081,3499.5,"Karasuma Sta., Dim sum, Izakaya (Tavern), Chinese",Chinese
476,Ryoma Shamo Nojo Kyoto Ekimae Ten,3.07,https://tabelog.com/en/kyoto/A2601/A260101/26022735/,34.98792661304943,135.76047864326307,3499.5,"Kyoto Sta., Izakaya (Tavern), Seafood, Sushi",Japanese
477,Pontocho Shabushabu Sukiyaki Kiraku,3.14,https://tabelog.com/en/kyoto/A2601/A260201/26041019/,35.004257587773154,135.77104426016032,8999.5,"Gion Shijo Sta., Shabu shabu (Japanese hotpot), Sukiyaki, Japanese Cuisine",Japanese
478,Korean Minamiya,3.37,https://tabelog.com/en/kyoto/A2601/A260201/26020740/,35.00138096872963,135.75827070716875,4499.5,"Shijo Sta., Korean, Yakiniku (BBQ Beef)",Korean
479,Kyo Chanko-nabe Seafood Izakaya Edo Jiman Beya,3.01,https://tabelog.com/en/kyoto/A2601/A260201/26031255/,35.004806037873145,135.77077078035276,3499.5,"Gion Shijo Sta., Izakaya (Tavern), Chanko Nabe (Sumo Wrestlers Hot Pot), Seafood",Japanese
480,Juju,3.19,https://tabelog.com/en/kyoto/A2601/A260101/26006037/,34.98364923788257,135.7581497801479,3499.5,"Kyoto Sta., Yakiniku (BBQ Beef), Japanese Cuisine, Izakaya (Tavern)",Japanese
481,Masoho 3B,3.20,https://tabelog.com/en/kyoto/A2601/A260201/26039065/,35.004280979502425,135.76074286833435,4499.5,"Karasuma Sta., Yakitori (Grilled chicken skewers), Sushi, Wine bar",Japanese
482,Bar MICHIya,3.53,https://tabelog.com/en/kyoto/A2601/A260301/26006716/,35.00918363787028,135.7705298803971,3499.5,"Sanjo Sta., Bar, Baru (Spanish style bar), Izakaya (Tavern)",Spanish
483,Jukusei Sashimi to Umai Sake Hitoshio,3.22,https://tabelog.com/en/kyoto/A2601/A260202/26030747/,35.00745493786972,135.76529268038337,5499.5,"Kyoto Shiyakusho Mae Sta., Izakaya (Tavern), Seafood, Nihonshu (Japanese sake)",Japanese
484,Pepper,3.19,https://tabelog.com/en/kyoto/A2601/A260201/26005274/,35.00511633518925,135.7703184235131,3499.5,"Kyoto Kawaramachi Sta., Okinawa cuisine, Izakaya (Tavern), Oden",Japanese
485,Kyo Gushi,3.08,https://tabelog.com/en/kyoto/A2601/A260101/26041671/,34.98901678085347,135.76085828376287,3499.5,"Kyoto Sta., Izakaya (Tavern), Kushiyaki, Regional Cuisine",Japanese
486,Sumibi to Wine Kyoto Kawaramachi Ten,3.25,https://tabelog.com/en/kyoto/A2601/A260201/26033372/,35.003217568804764,135.76570472743606,4499.5,"Kyoto Kawaramachi Sta., Baru (Spanish style bar), Steak, Italian",Italian
487,DODICI,3.71,https://tabelog.com/en/kyoto/A2601/A260202/26035328/,35.011877337867034,135.76567698042774,17499.5,"Kyoto Shiyakusho Mae Sta., Italian, Innovative, French",Italian
488,Taishu Sakaba Ten Uzumasa Tenjingawa Ten,3.04,https://tabelog.com/en/kyoto/A2601/A260402/26027891/,35.01146263785117,135.71506388045907,3499.5,"Uzumasa Tenjingawa Sta., Izakaya (Tavern), Chicken dishes, Motsu Nabe (Offel Hot Pot)",Japanese
489,Teppan Izakaya Futaba,3.05,https://tabelog.com/en/kyoto/A2601/A260201/26039436/,35.00463666416664,135.77031233499252,3499.5,"Kyoto Kawaramachi Sta., Izakaya (Tavern), Okonomiyaki (Japanese savory pancake), Creative",Japanese
490,Teppan Izakaya Teppou,3.06,https://tabelog.com/en/kyoto/A2607/A260702/26007965/,34.92482263790174,135.70105057959373,3499.5,"Nagaokakyo Sta., Izakaya (Tavern), Okonomiyaki (Japanese savory pancake)",Japanese
491,OndoriO,3.23,https://tabelog.com/en/kyoto/A2601/A260301/26040760/,34.99336143788066,135.77150898023663,12499.5,"Kiyomizu Gojo Sta., Italian, French, Innovative",Italian
492,OICHO,3.39,https://tabelog.com/en/kyoto/A2601/A260201/26013891/,34.999471325251385,135.7669878489124,3499.5,"Kiyomizu Gojo Sta., Chicken dishes, Yakitori (Grilled chicken skewers), Izakaya (Tavern)",Japanese
493,Wine to Kushikatsu Kopan Sentochoten,3.34,https://tabelog.com/en/kyoto/A2601/A260201/26002646/,35.00778133887913,135.77094602646687,6999.5,"Sanjo Sta., Kushi-age (Deep-fried skewers), Izakaya (Tavern), Wine bar",Japanese
494,Sumibi to Wine Karasuma Ten,3.36,https://tabelog.com/en/kyoto/A2601/A260201/26030965/,35.005150015387606,135.75857717484962,4499.5,"Karasuma Sta., Baru (Spanish style bar), Italian, Izakaya (Tavern)",Italian
495,Nikushou Geihinkan Seika Cho Ten,3.20,https://tabelog.com/en/kyoto/A2607/A260705/26038632/,34.745113238037746,135.76971577773034,4499.5,"Yamadagawa Sta., Yakiniku (BBQ Beef), Horumon (BBQ Offel), Izakaya (Tavern)",Japanese
496,Kumamoto Sogo Inshokuten MAO,3.48,https://tabelog.com/en/kyoto/A2601/A260202/26023015/,35.005346424812764,135.76095557939144,3499.5,"Karasuma Sta., Izakaya (Tavern), Beer hall, Cafeteria",Cafe
497,Niku no Yoichi Fushimi Momoyama Ten,3.04,https://tabelog.com/en/kyoto/A2601/A260601/26040303/,34.93305354955036,135.76280735343542,4499.5,"Fushimi Momoyama Sta., Yakiniku (BBQ Beef)",Japanese
498,Lino,3.62,https://tabelog.com/en/kyoto/A2601/A260202/26029038/,35.01314233786361,135.7574447804463,12499.5,"Karasuma Oike Sta., Italian, Pasta, Wine bar",Italian
499,Kyo Suiran,3.59,https://tabelog.com/en/kyoto/A2601/A260403/26025328/,35.01378683783637,135.67321538051186,17499.5,"Arashiyama Torokko Station Sta., Japanese Cuisine, French, Teppanyaki",French
500,Shaolongbao Tsutsumi Shinichi Tsutsumi Shinichi,3.46,https://tabelog.com/en/kyoto/A2601/A260101/26035257/,34.98939283787863,135.75729058020653,3499.5,"Kyoto Sta., Izakaya (Tavern), Chinese, Dumplings",Chinese
501,Sumibi Seafood Shuka Rakurin Kyoto Minaminta- Takeda Ten,3.11,https://tabelog.com/en/kyoto/A2601/A260601/26006387/,34.94653453790242,135.7464959797812,5499.5,"Fushimi Sta., Izakaya (Tavern), Gyutan (Beef tongue), Kamameshi",Japanese
502,KYOTO KITAYAMA MONOLITH,3.30,https://tabelog.com/en/kyoto/A2601/A260303/26005618/,35.053230937848696,135.79054418082802,6999.5,"Shugakuin Sta., Japanese Cuisine, Buffet style",Japanese
503,O ・ Mo ・ Ya Higashidoin,3.40,https://tabelog.com/en/kyoto/A2601/A260201/26006319/,35.00639519827274,135.76076943545212,6999.5,"Karasuma Sta., French, Bistro, Japanese Cuisine",French
